{"_index":"bahnhoefeie","_type":"bahnhofie","_id":"AWNLS-8OhtuDxSpydmKR","_score":1,"_source":{"type":"Feature","geometry":{"type":"Point","coordinates":[-8.81483,53.1572]},"properties":{"name":"Ardrahan","UICIBNR":183,"abkuerzung":"ARHAN","countryCode":"IE"}}}
{"_index":"bahnhoefeie","_type":"bahnhofie","_id":"AWNLS-8OhtuDxSpydmKV","_score":1,"_source":{"type":"Feature","geometry":{"type":"Point","coordinates":[-7.93683,53.4273]},"properties":{"name":"Athlone","UICIBNR":156,"abkuerzung":"ATLNE","countryCode":"IE"}}}
{"_index":"bahnhoefeie","_type":"bahnhofie","_id":"AWNLS-8OhtuDxSpydmKe","_score":1,"_source":{"type":"Feature","geometry":{"type":"Point","coordinates":[-8.52088,54.0887]},"properties":{"name":"Ballymote","UICIBNR":176,"abkuerzung":"BMOTE","countryCode":"IE"}}}
{"_index":"bahnhoefeie","_type":"bahnhofie","_id":"AWNLS-8PhtuDxSpydmKo","_score":1,"_source":{"type":"Feature","geometry":{"type":"Point","coordinates":[-6.92217,52.8407]},"properties":{"name":"Carlow","UICIBNR":46,"abkuerzung":"CRLOW","countryCode":"IE"}}}
{"_index":"bahnhoefeie","_type":"bahnhofie","_id":"AWNLS-8PhtuDxSpydmKt","_score":1,"_source":{"type":"Feature","geometry":{"type":"Point","coordinates":[-9.2873,53.8471]},"properties":{"name":"Castlebar","UICIBNR":168,"abkuerzung":"CLBAR","countryCode":"IE"}}}
{"_index":"bahnhoefeie","_type":"bahnhofie","_id":"AWNLS-8PhtuDxSpydmKw","_score":1,"_source":{"type":"Feature","geometry":{"type":"Point","coordinates":[-8.48448,53.7612]},"properties":{"name":"Castlerea","UICIBNR":164,"abkuerzung":"CSREA","countryCode":"IE"}}}
{"_index":"bahnhoefeie","_type":"bahnhofie","_id":"AWNLS-8PhtuDxSpydmKz","_score":1,"_source":{"type":"Feature","geometry":{"type":"Point","coordinates":[-9.00222,53.7204]},"properties":{"name":"Claremorris","UICIBNR":166,"abkuerzung":"CLMRS","countryCode":"IE"}}}
{"_index":"bahnhoefeie","_type":"bahnhofie","_id":"AWNLS-8PhtuDxSpydmLC","_score":1,"_source":{"type":"Feature","geometry":{"type":"Point","coordinates":[-6.15134,53.4855]},"properties":{"name":"Donabate","UICIBNR":113,"abkuerzung":"DBATE","countryCode":"IE"}}}
{"_index":"bahnhoefeie","_type":"bahnhofie","_id":"AWNLS-8PhtuDxSpydmLJ","_score":1,"_source":{"type":"Feature","geometry":{"type":"Point","coordinates":[-6.13498,53.2951]},"properties":{"name":"Dún Laoghaire Mallin","UICIBNR":131,"abkuerzung":"DLERY","countryCode":"IE"}}}
{"_index":"bahnhoefeie","_type":"bahnhofie","_id":"AWNLS-8PhtuDxSpydmLK","_score":1,"_source":{"type":"Feature","geometry":{"type":"Point","coordinates":[-6.46483,53.4175]},"properties":{"name":"Dunboyne","UICIBNR":85,"abkuerzung":"DBYNE","countryCode":"IE"}}}
{"_index":"bahnhoefeie","_type":"bahnhofie","_id":"AWNLS-8PhtuDxSpydmLO","_score":1,"_source":{"type":"Feature","geometry":{"type":"Point","coordinates":[-8.97491,52.8386]},"properties":{"name":"Ennis","UICIBNR":181,"abkuerzung":"ENNIS","countryCode":"IE"}}}
{"_index":"bahnhoefeie","_type":"bahnhofie","_id":"AWNLS-8PhtuDxSpydmLP","_score":1,"_source":{"type":"Feature","geometry":{"type":"Point","coordinates":[-6.56627,52.5046]},"properties":{"name":"Enniscorthy","UICIBNR":147,"abkuerzung":"ECRTY","countryCode":"IE"}}}
{"_index":"bahnhoefeie","_type":"bahnhofie","_id":"AWNLS-8PhtuDxSpydmLR","_score":1,"_source":{"type":"Feature","geometry":{"type":"Point","coordinates":[-8.3183,51.896]},"properties":{"name":"Fota","UICIBNR":63,"abkuerzung":"FOTA","countryCode":"IE"}}}
{"_index":"bahnhoefeie","_type":"bahnhofie","_id":"AWNLS-8PhtuDxSpydmLU","_score":1,"_source":{"type":"Feature","geometry":{"type":"Point","coordinates":[-6.12289,53.2812]},"properties":{"name":"Glenageary","UICIBNR":133,"abkuerzung":"GLGRY","countryCode":"IE"}}}
{"_index":"bahnhoefeie","_type":"bahnhofie","_id":"AWNLS-8PhtuDxSpydmLV","_score":1,"_source":{"type":"Feature","geometry":{"type":"Point","coordinates":[-8.3254,51.9112]},"properties":{"name":"Glounthaune","UICIBNR":380,"abkuerzung":"GHANE","countryCode":"IE"}}}
{"_index":"bahnhoefeie","_type":"bahnhofie","_id":"AWNLS-8PhtuDxSpydmLW","_score":1,"_source":{"type":"Feature","geometry":{"type":"Point","coordinates":[-6.29195,52.6712]},"properties":{"name":"Gorey","UICIBNR":145,"abkuerzung":"GOREY","countryCode":"IE"}}}
{"_index":"bahnhoefeie","_type":"bahnhofie","_id":"AWNLS-8PhtuDxSpydmLb","_score":1,"_source":{"type":"Feature","geometry":{"type":"Point","coordinates":[-6.44205,53.3853]},"properties":{"name":"Hansfield","UICIBNR":87,"abkuerzung":"HAFLD","countryCode":"IE"}}}
{"_index":"bahnhoefeie","_type":"bahnhofie","_id":"AWNLS-8PhtuDxSpydmLc","_score":1,"_source":{"type":"Feature","geometry":{"type":"Point","coordinates":[-6.19131,53.3786]},"properties":{"name":"Harmonstown","UICIBNR":102,"abkuerzung":"HTOWN","countryCode":"IE"}}}
{"_index":"bahnhoefeie","_type":"bahnhofie","_id":"AWNLS-8PhtuDxSpydmLj","_score":1,"_source":{"type":"Feature","geometry":{"type":"Point","coordinates":[-6.90802,53.163]},"properties":{"name":"Kildare","UICIBNR":6,"abkuerzung":"KDARE","countryCode":"IE"}}}
{"_index":"bahnhoefeie","_type":"bahnhofie","_id":"AWNLS-8PhtuDxSpydmLu","_score":1,"_source":{"type":"Feature","geometry":{"type":"Point","coordinates":[-8.35466,51.9078]},"properties":{"name":"Little Island","UICIBNR":61,"abkuerzung":"LSLND","countryCode":"IE"}}}
{"_index":"bahnhoefeie","_type":"bahnhofie","_id":"AWNLS-8PhtuDxSpydmL4","_score":1,"_source":{"type":"Feature","geometry":{"type":"Point","coordinates":[-7.34608,53.523]},"properties":{"name":"Mullingar","UICIBNR":153,"abkuerzung":"MLGAR","countryCode":"IE"}}}
{"_index":"bahnhoefeie","_type":"bahnhofie","_id":"AWNLS-8PhtuDxSpydmL5","_score":1,"_source":{"type":"Feature","geometry":{"type":"Point","coordinates":[-6.34591,53.3777]},"properties":{"name":"Navan Road Parkway","UICIBNR":89,"abkuerzung":"PHNPK","countryCode":"IE"}}}
{"_index":"bahnhoefeie","_type":"bahnhofie","_id":"AWNLS-8PhtuDxSpydmL7","_score":1,"_source":{"type":"Feature","geometry":{"type":"Point","coordinates":[-6.80807,53.1855]},"properties":{"name":"Newbridge","UICIBNR":4,"abkuerzung":"NBRGE","countryCode":"IE"}}}
{"_index":"bahnhoefeie","_type":"bahnhofie","_id":"AWNLS-8PhtuDxSpydmL-","_score":1,"_source":{"type":"Feature","geometry":{"type":"Point","coordinates":[-7.18055,53.146]},"properties":{"name":"Portarlington","UICIBNR":8,"abkuerzung":"PTRTN","countryCode":""}}}
{"_index":"bahnhoefeie","_type":"bahnhofie","_id":"AWNLS-8PhtuDxSpydmMM","_score":1,"_source":{"type":"Feature","geometry":{"type":"Point","coordinates":[-6.12712,53.2878]},"properties":{"name":"Sandycove","UICIBNR":132,"abkuerzung":"SCOVE","countryCode":""}}}
{"_index":"bahnhoefeie","_type":"bahnhofie","_id":"AWNLS-8PhtuDxSpydmMN","_score":1,"_source":{"type":"Feature","geometry":{"type":"Point","coordinates":[-6.22116,53.3281]},"properties":{"name":"Sandymount","UICIBNR":188,"abkuerzung":"SMONT","countryCode":""}}}
{"_index":"bahnhoefeie","_type":"bahnhofie","_id":"AWNLS-8PhtuDxSpydmMP","_score":1,"_source":{"type":"Feature","geometry":{"type":"Point","coordinates":[-6.11691,53.2364]},"properties":{"name":"Shankill","UICIBNR":136,"abkuerzung":"SKILL","countryCode":""}}}
{"_index":"bahnhoefeie","_type":"bahnhofie","_id":"AWNLS-8PhtuDxSpydmMR","_score":1,"_source":{"type":"Feature","geometry":{"type":"Point","coordinates":[-6.11933,53.5741]},"properties":{"name":"Skerries","UICIBNR":115,"abkuerzung":"SKRES","countryCode":""}}}
{"_index":"bahnhoefeie","_type":"bahnhofie","_id":"AWNLS-8PhtuDxSpydmMf","_score":1,"_source":{"type":"Feature","geometry":{"type":"Point","coordinates":[-6.05338,52.9882]},"properties":{"name":"Wicklow","UICIBNR":142,"abkuerzung":"WLOW","countryCode":""}}}
{"_index":"bahnhoefeie","_type":"bahnhofie","_id":"AWNLS-8OhtuDxSpydmKW","_score":1,"_source":{"type":"Feature","geometry":{"type":"Point","coordinates":[-6.9762,52.992]},"properties":{"name":"Athy","UICIBNR":45,"abkuerzung":"ATHY","countryCode":"IE"}}}
{"_index":"bahnhoefeie","_type":"bahnhofie","_id":"AWNLS-8OhtuDxSpydmKb","_score":1,"_source":{"type":"Feature","geometry":{"type":"Point","coordinates":[-8.24081,53.3363]},"properties":{"name":"Ballinasloe","UICIBNR":157,"abkuerzung":"BSLOE","countryCode":"IE"}}}
{"_index":"bahnhoefeie","_type":"bahnhofie","_id":"AWNLS-8OhtuDxSpydmKc","_score":1,"_source":{"type":"Feature","geometry":{"type":"Point","coordinates":[-7.60259,52.8999]},"properties":{"name":"Ballybrophy","UICIBNR":11,"abkuerzung":"BBRHY","countryCode":"IE"}}}
{"_index":"bahnhoefeie","_type":"bahnhofie","_id":"AWNLS-8OhtuDxSpydmKd","_score":1,"_source":{"type":"Feature","geometry":{"type":"Point","coordinates":[-8.7584,53.7616]},"properties":{"name":"Ballyhaunis","UICIBNR":165,"abkuerzung":"BYHNS","countryCode":"IE"}}}
{"_index":"bahnhoefeie","_type":"bahnhofie","_id":"AWNLS-8OhtuDxSpydmKf","_score":1,"_source":{"type":"Feature","geometry":{"type":"Point","coordinates":[-8.89793,52.1287]},"properties":{"name":"Banteer","UICIBNR":23,"abkuerzung":"BTEER","countryCode":"IE"}}}
{"_index":"bahnhoefeie","_type":"bahnhofie","_id":"AWNLS-8OhtuDxSpydmKg","_score":1,"_source":{"type":"Feature","geometry":{"type":"Point","coordinates":[-6.13678,53.3917]},"properties":{"name":"Bayside","UICIBNR":106,"abkuerzung":"BYSDE","countryCode":"IE"}}}
{"_index":"bahnhoefeie","_type":"bahnhofie","_id":"AWNLS-8OhtuDxSpydmKj","_score":1,"_source":{"type":"Feature","geometry":{"type":"Point","coordinates":[-6.19498,53.3099]},"properties":{"name":"Booterstown","UICIBNR":127,"abkuerzung":"BTSTN","countryCode":"IE"}}}
{"_index":"bahnhoefeie","_type":"bahnhofie","_id":"AWNLS-8PhtuDxSpydmKl","_score":1,"_source":{"type":"Feature","geometry":{"type":"Point","coordinates":[-6.10046,53.2043]},"properties":{"name":"Bray Daly","UICIBNR":140,"abkuerzung":"BRAY","countryCode":"IE"}}}
{"_index":"bahnhoefeie","_type":"bahnhofie","_id":"AWNLS-8PhtuDxSpydmKn","_score":1,"_source":{"type":"Feature","geometry":{"type":"Point","coordinates":[-7.92181,52.3777]},"properties":{"name":"Cahir","UICIBNR":42,"abkuerzung":"CAHIR","countryCode":"IE"}}}
{"_index":"bahnhoefeie","_type":"bahnhofie","_id":"AWNLS-8PhtuDxSpydmKy","_score":1,"_source":{"type":"Feature","geometry":{"type":"Point","coordinates":[-7.61596,53.3395]},"properties":{"name":"Clara","UICIBNR":73,"abkuerzung":"CLARA","countryCode":"IE"}}}
{"_index":"bahnhoefeie","_type":"bahnhofie","_id":"AWNLS-8PhtuDxSpydmK4","_score":1,"_source":{"type":"Feature","geometry":{"type":"Point","coordinates":[-6.22753,53.3629]},"properties":{"name":"Clontarf Road","UICIBNR":109,"abkuerzung":"CTARF","countryCode":"IE"}}}
{"_index":"bahnhoefeie","_type":"bahnhofie","_id":"AWNLS-8PhtuDxSpydmK5","_score":1,"_source":{"type":"Feature","geometry":{"type":"Point","coordinates":[-8.0246,52.9363]},"properties":{"name":"Cloughjordan","UICIBNR":32,"abkuerzung":"CJRDN","countryCode":"IE"}}}
{"_index":"bahnhoefeie","_type":"bahnhofie","_id":"AWNLS-8PhtuDxSpydmK6","_score":1,"_source":{"type":"Feature","geometry":{"type":"Point","coordinates":[-8.29956,51.8491]},"properties":{"name":"Cobh","UICIBNR":66,"abkuerzung":"COBH","countryCode":"IE"}}}
{"_index":"bahnhoefeie","_type":"bahnhofie","_id":"AWNLS-8PhtuDxSpydmK7","_score":1,"_source":{"type":"Feature","geometry":{"type":"Point","coordinates":[-8.49453,54.1871]},"properties":{"name":"Collooney","UICIBNR":177,"abkuerzung":"COLNY","countryCode":"IE"}}}
{"_index":"bahnhoefeie","_type":"bahnhofie","_id":"AWNLS-8PhtuDxSpydmK8","_score":1,"_source":{"type":"Feature","geometry":{"type":"Point","coordinates":[-6.39072,53.3776]},"properties":{"name":"Coolmine","UICIBNR":95,"abkuerzung":"CMINE","countryCode":"IE"}}}
{"_index":"bahnhoefeie","_type":"bahnhofie","_id":"AWNLS-8PhtuDxSpydmK9","_score":1,"_source":{"type":"Feature","geometry":{"type":"Point","coordinates":[-8.4582,51.9018]},"properties":{"name":"Cork Kent","UICIBNR":30,"abkuerzung":"CORK","countryCode":"IE"}}}
{"_index":"bahnhoefeie","_type":"bahnhofie","_id":"AWNLS-8PhtuDxSpydmLE","_score":1,"_source":{"type":"Feature","geometry":{"type":"Point","coordinates":[-7.9164,53.8591]},"properties":{"name":"Dromod","UICIBNR":173,"abkuerzung":"DRMOD","countryCode":"IE"}}}
{"_index":"bahnhoefeie","_type":"bahnhofie","_id":"AWNLS-8PhtuDxSpydmLI","_score":1,"_source":{"type":"Feature","geometry":{"type":"Point","coordinates":[-6.24829,53.3433]},"properties":{"name":"Dublin Pearse","UICIBNR":150,"abkuerzung":"PERSE","countryCode":"IE"}}}
{"_index":"bahnhoefeie","_type":"bahnhofie","_id":"AWNLS-8PhtuDxSpydmLY","_score":1,"_source":{"type":"Feature","geometry":{"type":"Point","coordinates":[-8.81595,53.0653]},"properties":{"name":"Gort","UICIBNR":182,"abkuerzung":"GORT","countryCode":"IE"}}}
{"_index":"bahnhoefeie","_type":"bahnhofie","_id":"AWNLS-8PhtuDxSpydmLf","_score":1,"_source":{"type":"Feature","geometry":{"type":"Point","coordinates":[-6.15672,53.3909]},"properties":{"name":"Howth Junction & Donaghmede","UICIBNR":105,"abkuerzung":"HWTHJ","countryCode":"IE"}}}
{"_index":"bahnhoefeie","_type":"bahnhofie","_id":"AWNLS-8PhtuDxSpydmLi","_score":1,"_source":{"type":"Feature","geometry":{"type":"Point","coordinates":[-6.04112,53.107]},"properties":{"name":"Kilcoole halt","UICIBNR":139,"abkuerzung":"KCOOL","countryCode":"IE"}}}
{"_index":"bahnhoefeie","_type":"bahnhofie","_id":"AWNLS-8PhtuDxSpydmLl","_score":1,"_source":{"type":"Feature","geometry":{"type":"Point","coordinates":[-9.50198,52.0595]},"properties":{"name":"Killarney","UICIBNR":26,"abkuerzung":"KLRNY","countryCode":"IE"}}}
{"_index":"bahnhoefeie","_type":"bahnhofie","_id":"AWNLS-8PhtuDxSpydmLn","_score":1,"_source":{"type":"Feature","geometry":{"type":"Point","coordinates":[-6.11317,53.2557]},"properties":{"name":"Killiney","UICIBNR":135,"abkuerzung":"KILNY","countryCode":"IE"}}}
{"_index":"bahnhoefeie","_type":"bahnhofie","_id":"AWNLS-8PhtuDxSpydmLt","_score":1,"_source":{"type":"Feature","geometry":{"type":"Point","coordinates":[-8.20003,52.5009]},"properties":{"name":"Limerick Junction","UICIBNR":16,"abkuerzung":"LMRKJ","countryCode":"IE"}}}
{"_index":"bahnhoefeie","_type":"bahnhofie","_id":"AWNLS-8PhtuDxSpydmLv","_score":1,"_source":{"type":"Feature","geometry":{"type":"Point","coordinates":[-7.79574,53.7243]},"properties":{"name":"Longford","UICIBNR":172,"abkuerzung":"LFORD","countryCode":"IE"}}}
{"_index":"bahnhoefeie","_type":"bahnhofie","_id":"AWNLS-8PhtuDxSpydmLy","_score":1,"_source":{"type":"Feature","geometry":{"type":"Point","coordinates":[-8.65521,52.1396]},"properties":{"name":"Mallow","UICIBNR":21,"abkuerzung":"MLLOW","countryCode":"IE"}}}
{"_index":"bahnhoefeie","_type":"bahnhofie","_id":"AWNLS-8PhtuDxSpydmL6","_score":1,"_source":{"type":"Feature","geometry":{"type":"Point","coordinates":[-8.19471,52.8605]},"properties":{"name":"Nenagh","UICIBNR":33,"abkuerzung":"NNAGH","countryCode":"IE"}}}
{"_index":"bahnhoefeie","_type":"bahnhofie","_id":"AWNLS-8PhtuDxSpydmMH","_score":1,"_source":{"type":"Feature","geometry":{"type":"Point","coordinates":[-6.39254,52.2726]},"properties":{"name":"Rosslare Strand","UICIBNR":58,"abkuerzung":"RLSTD","countryCode":""}}}
{"_index":"bahnhoefeie","_type":"bahnhofie","_id":"AWNLS-8PhtuDxSpydmMK","_score":1,"_source":{"type":"Feature","geometry":{"type":"Point","coordinates":[-6.66386,53.2469]},"properties":{"name":"Sallins and Naas","UICIBNR":79,"abkuerzung":"SALNS","countryCode":""}}}
{"_index":"bahnhoefeie","_type":"bahnhofie","_id":"AWNLS-8PhtuDxSpydmMO","_score":1,"_source":{"type":"Feature","geometry":{"type":"Point","coordinates":[-6.16512,53.2991]},"properties":{"name":"Seapoint","UICIBNR":129,"abkuerzung":"SEAPT","countryCode":""}}}
{"_index":"bahnhoefeie","_type":"bahnhofie","_id":"AWNLS-8PhtuDxSpydmMV","_score":1,"_source":{"type":"Feature","geometry":{"type":"Point","coordinates":[-6.25425,53.347]},"properties":{"name":"Tara Street","UICIBNR":124,"abkuerzung":"TARA","countryCode":""}}}
{"_index":"bahnhoefeie","_type":"bahnhofie","_id":"AWNLS-8PhtuDxSpydmMa","_score":1,"_source":{"type":"Feature","geometry":{"type":"Point","coordinates":[-9.69846,52.271]},"properties":{"name":"Tralee Casement","UICIBNR":28,"abkuerzung":"TRLEE","countryCode":""}}}
{"_index":"bahnhoefeie","_type":"bahnhofie","_id":"AWNLS-8PhtuDxSpydmMc","_score":1,"_source":{"type":"Feature","geometry":{"type":"Point","coordinates":[-7.1183,52.2667]},"properties":{"name":"Waterford Plunkett","UICIBNR":50,"abkuerzung":"WFORD","countryCode":""}}}
{"_index":"bahnhoefeie","_type":"bahnhofie","_id":"AWNLS-8PhtuDxSpydmMd","_score":1,"_source":{"type":"Feature","geometry":{"type":"Point","coordinates":[-9.50885,53.7955]},"properties":{"name":"Westport","UICIBNR":169,"abkuerzung":"WPORT","countryCode":""}}}
{"_index":"bahnhoefeie","_type":"bahnhofie","_id":"AWNLS-8PhtuDxSpydmMg","_score":1,"_source":{"type":"Feature","geometry":{"type":"Point","coordinates":[-6.1101,53.22]},"properties":{"name":"Woodbrook (Planned [1])","UICIBNR":801,"abkuerzung":"WBROK","countryCode":""}}}
{"_index":"bahnhoefeie","_type":"bahnhofie","_id":"AWNLS-8OhtuDxSpydmKY","_score":1,"_source":{"type":"Feature","geometry":{"type":"Point","coordinates":[-6.95213,52.699]},"properties":{"name":"Bagenalstown","UICIBNR":47,"abkuerzung":"MNEBG","countryCode":"IE"}}}
{"_index":"bahnhoefeie","_type":"bahnhofie","_id":"AWNLS-8OhtuDxSpydmKa","_score":1,"_source":{"type":"Feature","geometry":{"type":"Point","coordinates":[-9.16146,54.1085]},"properties":{"name":"Ballina","UICIBNR":167,"abkuerzung":"BALNA","countryCode":"IE"}}}
{"_index":"bahnhoefeie","_type":"bahnhofie","_id":"AWNLS-8PhtuDxSpydmKq","_score":1,"_source":{"type":"Feature","geometry":{"type":"Point","coordinates":[-8.10657,53.9383]},"properties":{"name":"Carrick-on-Shannon","UICIBNR":174,"abkuerzung":"CKOSH","countryCode":"IE"}}}
{"_index":"bahnhoefeie","_type":"bahnhofie","_id":"AWNLS-8PhtuDxSpydmKs","_score":1,"_source":{"type":"Feature","geometry":{"type":"Point","coordinates":[-8.26323,51.9163]},"properties":{"name":"Carrigtwohill","UICIBNR":67,"abkuerzung":"CGTWL","countryCode":"IE"}}}
{"_index":"bahnhoefeie","_type":"bahnhofie","_id":"AWNLS-8PhtuDxSpydmKu","_score":1,"_source":{"type":"Feature","geometry":{"type":"Point","coordinates":[-8.49794,52.7128]},"properties":{"name":"Castleconnell","UICIBNR":35,"abkuerzung":"CCONL","countryCode":"IE"}}}
{"_index":"bahnhoefeie","_type":"bahnhofie","_id":"AWNLS-8PhtuDxSpydmK1","_score":1,"_source":{"type":"Feature","geometry":{"type":"Point","coordinates":[-6.14839,53.4032]},"properties":{"name":"Clongriffin","UICIBNR":187,"abkuerzung":"GRGRD","countryCode":"IE"}}}
{"_index":"bahnhoefeie","_type":"bahnhofie","_id":"AWNLS-8PhtuDxSpydmK2","_score":1,"_source":{"type":"Feature","geometry":{"type":"Point","coordinates":[-7.69936,52.3611]},"properties":{"name":"Clonmel","UICIBNR":43,"abkuerzung":"CLMEL","countryCode":"IE"}}}
{"_index":"bahnhoefeie","_type":"bahnhofie","_id":"AWNLS-8PhtuDxSpydmK-","_score":1,"_source":{"type":"Feature","geometry":{"type":"Point","coordinates":[-8.7359,53.2252]},"properties":{"name":"Craughwell","UICIBNR":184,"abkuerzung":"CRGHW","countryCode":"IE"}}}
{"_index":"bahnhoefeie","_type":"bahnhofie","_id":"AWNLS-8PhtuDxSpydmLH","_score":1,"_source":{"type":"Feature","geometry":{"type":"Point","coordinates":[-6.29461,53.3464]},"properties":{"name":"Dublin Heuston","UICIBNR":1,"abkuerzung":"HSTON","countryCode":"IE"}}}
{"_index":"bahnhoefeie","_type":"bahnhofie","_id":"AWNLS-8PhtuDxSpydmLh","_score":1,"_source":{"type":"Feature","geometry":{"type":"Point","coordinates":[-6.67892,53.4043]},"properties":{"name":"Kilcock","UICIBNR":90,"abkuerzung":"KCOCK","countryCode":"IE"}}}
{"_index":"bahnhoefeie","_type":"bahnhofie","_id":"AWNLS-8PhtuDxSpydmLk","_score":1,"_source":{"type":"Feature","geometry":{"type":"Point","coordinates":[-7.24498,52.655]},"properties":{"name":"Kilkenny MacDonagh","UICIBNR":48,"abkuerzung":"KKNNY","countryCode":"IE"}}}
{"_index":"bahnhoefeie","_type":"bahnhofie","_id":"AWNLS-8PhtuDxSpydmLr","_score":1,"_source":{"type":"Feature","geometry":{"type":"Point","coordinates":[-6.50598,53.3704]},"properties":{"name":"Leixlip Louisa Bridge","UICIBNR":92,"abkuerzung":"LXLSA","countryCode":"IE"}}}
{"_index":"bahnhoefeie","_type":"bahnhofie","_id":"AWNLS-8PhtuDxSpydmLw","_score":1,"_source":{"type":"Feature","geometry":{"type":"Point","coordinates":[-6.46898,53.4349]},"properties":{"name":"M3 Parkway","UICIBNR":86,"abkuerzung":"M3WAY","countryCode":"IE"}}}
{"_index":"bahnhoefeie","_type":"bahnhofie","_id":"AWNLS-8PhtuDxSpydmLx","_score":1,"_source":{"type":"Feature","geometry":{"type":"Point","coordinates":[-6.15649,53.4509]},"properties":{"name":"Malahide","UICIBNR":112,"abkuerzung":"MHIDE","countryCode":"IE"}}}
{"_index":"bahnhoefeie","_type":"bahnhofie","_id":"AWNLS-8PhtuDxSpydmL1","_score":1,"_source":{"type":"Feature","geometry":{"type":"Point","coordinates":[-8.17579,51.9212]},"properties":{"name":"Midleton","UICIBNR":68,"abkuerzung":"MDLTN","countryCode":"IE"}}}
{"_index":"bahnhoefeie","_type":"bahnhofie","_id":"AWNLS-8PhtuDxSpydmL9","_score":1,"_source":{"type":"Feature","geometry":{"type":"Point","coordinates":[-6.37868,53.334]},"properties":{"name":"Park West and Cherry Orchard","UICIBNR":76,"abkuerzung":"CHORC","countryCode":""}}}
{"_index":"bahnhoefeie","_type":"bahnhofie","_id":"AWNLS-8PhtuDxSpydmMA","_score":1,"_source":{"type":"Feature","geometry":{"type":"Point","coordinates":[-6.1512,53.4169]},"properties":{"name":"Portmarnock","UICIBNR":111,"abkuerzung":"PMNCK","countryCode":""}}}
{"_index":"bahnhoefeie","_type":"bahnhofie","_id":"AWNLS-8PhtuDxSpydmME","_score":1,"_source":{"type":"Feature","geometry":{"type":"Point","coordinates":[-8.19631,53.6243]},"properties":{"name":"Roscommon","UICIBNR":163,"abkuerzung":"RSCMN","countryCode":""}}}
{"_index":"bahnhoefeie","_type":"bahnhofie","_id":"AWNLS-8PhtuDxSpydmMF","_score":1,"_source":{"type":"Feature","geometry":{"type":"Point","coordinates":[-7.7941,52.9607]},"properties":{"name":"Roscrea","UICIBNR":31,"abkuerzung":"RCREA","countryCode":""}}}
{"_index":"bahnhoefeie","_type":"bahnhofie","_id":"AWNLS-8PhtuDxSpydmML","_score":1,"_source":{"type":"Feature","geometry":{"type":"Point","coordinates":[-6.15206,53.2954]},"properties":{"name":"Salthill and Monkstown","UICIBNR":130,"abkuerzung":"SHILL","countryCode":""}}}
{"_index":"bahnhoefeie","_type":"bahnhofie","_id":"AWNLS-8PhtuDxSpydmMQ","_score":1,"_source":{"type":"Feature","geometry":{"type":"Point","coordinates":[-8.78427,52.7376]},"properties":{"name":"Sixmilebridge","UICIBNR":185,"abkuerzung":"SXMBR","countryCode":""}}}
{"_index":"bahnhoefeie","_type":"bahnhofie","_id":"AWNLS-8PhtuDxSpydmMS","_score":1,"_source":{"type":"Feature","geometry":{"type":"Point","coordinates":[-8.48249,54.2723]},"properties":{"name":"Sligo Mac Diarmada","UICIBNR":180,"abkuerzung":"SLIGO","countryCode":""}}}
{"_index":"bahnhoefeie","_type":"bahnhofie","_id":"AWNLS-8PhtuDxSpydmMh","_score":1,"_source":{"type":"Feature","geometry":{"type":"Point","coordinates":[-8.47231,53.3432]},"properties":{"name":"Woodlawn","UICIBNR":158,"abkuerzung":"WLAWN","countryCode":""}}}
{"_index":"bahnhoefeie","_type":"bahnhofie","_id":"AWNLS-8OhtuDxSpydmKQ","_score":1,"_source":{"type":"Feature","geometry":{"type":"Point","coordinates":[-6.45233,53.3353]},"properties":{"name":"Adamstown","UICIBNR":75,"abkuerzung":"ADMTN","countryCode":"IE"}}}
{"_index":"bahnhoefeie","_type":"bahnhofie","_id":"AWNLS-8OhtuDxSpydmKS","_score":1,"_source":{"type":"Feature","geometry":{"type":"Point","coordinates":[-6.15994,52.7932]},"properties":{"name":"Arklow","UICIBNR":144,"abkuerzung":"ARKLW","countryCode":"IE"}}}
{"_index":"bahnhoefeie","_type":"bahnhofie","_id":"AWNLS-8OhtuDxSpydmKZ","_score":1,"_source":{"type":"Feature","geometry":{"type":"Point","coordinates":[-6.18226,53.6118]},"properties":{"name":"Balbriggan","UICIBNR":116,"abkuerzung":"BBRGN","countryCode":"IE"}}}
{"_index":"bahnhoefeie","_type":"bahnhofie","_id":"AWNLS-8OhtuDxSpydmKi","_score":1,"_source":{"type":"Feature","geometry":{"type":"Point","coordinates":[-6.17833,53.3027]},"properties":{"name":"Blackrock","UICIBNR":128,"abkuerzung":"BROCK","countryCode":"IE"}}}
{"_index":"bahnhoefeie","_type":"bahnhofie","_id":"AWNLS-8OhtuDxSpydmKk","_score":1,"_source":{"type":"Feature","geometry":{"type":"Point","coordinates":[-8.30438,53.9676]},"properties":{"name":"Boyle","UICIBNR":175,"abkuerzung":"BOYLE","countryCode":"IE"}}}
{"_index":"bahnhoefeie","_type":"bahnhofie","_id":"AWNLS-8PhtuDxSpydmKm","_score":1,"_source":{"type":"Feature","geometry":{"type":"Point","coordinates":[-6.29869,53.3725]},"properties":{"name":"Broombridge","UICIBNR":98,"abkuerzung":"BBRDG","countryCode":"IE"}}}
{"_index":"bahnhoefeie","_type":"bahnhofie","_id":"AWNLS-8PhtuDxSpydmKp","_score":1,"_source":{"type":"Feature","geometry":{"type":"Point","coordinates":[-7.40354,52.3487]},"properties":{"name":"Carrick on Suir","UICIBNR":44,"abkuerzung":"CKOSR","countryCode":"IE"}}}
{"_index":"bahnhoefeie","_type":"bahnhofie","_id":"AWNLS-8PhtuDxSpydmKr","_score":1,"_source":{"type":"Feature","geometry":{"type":"Point","coordinates":[-8.32417,51.8688]},"properties":{"name":"Carrigaloe","UICIBNR":64,"abkuerzung":"CGLOE","countryCode":"IE"}}}
{"_index":"bahnhoefeie","_type":"bahnhofie","_id":"AWNLS-8PhtuDxSpydmK0","_score":1,"_source":{"type":"Feature","geometry":{"type":"Point","coordinates":[-6.40628,53.3334]},"properties":{"name":"Clondalkin and Fonthill","UICIBNR":77,"abkuerzung":"CLDKN","countryCode":"IE"}}}
{"_index":"bahnhoefeie","_type":"bahnhofie","_id":"AWNLS-8PhtuDxSpydmK3","_score":1,"_source":{"type":"Feature","geometry":{"type":"Point","coordinates":[-6.4242,53.3831]},"properties":{"name":"Clonsilla","UICIBNR":94,"abkuerzung":"CLSLA","countryCode":"IE"}}}
{"_index":"bahnhoefeie","_type":"bahnhofie","_id":"AWNLS-8PhtuDxSpydmK_","_score":1,"_source":{"type":"Feature","geometry":{"type":"Point","coordinates":[-6.86245,53.1725]},"properties":{"name":"Curragh","UICIBNR":5,"abkuerzung":"CURAH","countryCode":"IE"}}}
{"_index":"bahnhoefeie","_type":"bahnhofie","_id":"AWNLS-8PhtuDxSpydmLM","_score":1,"_source":{"type":"Feature","geometry":{"type":"Point","coordinates":[-7.60299,53.6888]},"properties":{"name":"Edgeworthstown/Mostrim","UICIBNR":171,"abkuerzung":"ETOWN","countryCode":"IE"}}}
