{"_index":"bahnhoefepl","_type":"bahnhofpl","_id":"AWFmRSOQRqXmo6ccrtbm","_score":1,"_source":{"type":"Feature","geometry":{"type":"Point","coordinates":[17.494725,51.968887]},"properties":{"name":"Jarocin (Jarocin)","UICIBNR":5100016,"UIC":5104470}}}
{"_index":"bahnhoefepl","_type":"bahnhofpl","_id":"AWFmRSOQRqXmo6ccrtb1","_score":1,"_source":{"type":"Feature","geometry":{"type":"Point","coordinates":[23.641945,53.511113]},"properties":{"name":"Kuznica Bialostocka (Kuźnica Białostocka)","UICIBNR":5100033,"UIC":5102500}}}
{"_index":"bahnhoefepl","_type":"bahnhofpl","_id":"AWFmRSOQRqXmo6ccrtb2","_score":1,"_source":{"type":"Feature","geometry":{"type":"Point","coordinates":[16.168052,51.213614]},"properties":{"name":"Legnica (Legnica)","UICIBNR":5100035,"UIC":5105300}}}
{"_index":"bahnhoefepl","_type":"bahnhofpl","_id":"AWFmRSOQRqXmo6ccrtb5","_score":1,"_source":{"type":"Feature","geometry":{"type":"Point","coordinates":[19.430004,51.758054]},"properties":{"name":"Lodz Kaliska (Łódź Kaliska)","UICIBNR":5100039,"UIC":5104670}}}
{"_index":"bahnhoefepl","_type":"bahnhofpl","_id":"AWFmRSOQRqXmo6ccrtb8","_score":1,"_source":{"type":"Feature","geometry":{"type":"Point","coordinates":[20.703056,49.606666]},"properties":{"name":"Nowy Sacz (Nowy Sącz)","UICIBNR":5100042,"UIC":5108190}}}
{"_index":"bahnhoefepl","_type":"bahnhofpl","_id":"AWFmRSOQRqXmo6ccrtb_","_score":1,"_source":{"type":"Feature","geometry":{"type":"Point","coordinates":[20.497221,53.785832]},"properties":{"name":"Olsztyn Glowny (Olsztyn Główny)","UICIBNR":5100045,"UIC":5100920}}}
{"_index":"bahnhoefepl","_type":"bahnhofpl","_id":"AWFmRSOQRqXmo6ccrtcD","_score":1,"_source":{"type":"Feature","geometry":{"type":"Point","coordinates":[16.744441,53.14278]},"properties":{"name":"Pila Glowna (Piła Główna)","UICIBNR":5100049,"UIC":5101440}}}
{"_index":"bahnhoefepl","_type":"bahnhofpl","_id":"AWFmRSOQRqXmo6ccrtcG","_score":1,"_source":{"type":"Feature","geometry":{"type":"Point","coordinates":[21.155277,51.390836]},"properties":{"name":"Radom (Radom)","UICIBNR":5100052,"UIC":5104835}}}
{"_index":"bahnhoefepl","_type":"bahnhofpl","_id":"AWFmRSOQRqXmo6ccrtcN","_score":1,"_source":{"type":"Feature","geometry":{"type":"Point","coordinates":[14.266663,53.904723]},"properties":{"name":"Swinoujscie (Świnoujście)","UICIBNR":5100059,"UIC":5100100}}}
{"_index":"bahnhoefepl","_type":"bahnhofpl","_id":"AWFmRSOQRqXmo6ccrtcO","_score":1,"_source":{"type":"Feature","geometry":{"type":"Point","coordinates":[18.790278,54.097497]},"properties":{"name":"Tczew (Tczew)","UICIBNR":5100061,"UIC":5100711}}}
{"_index":"bahnhoefepl","_type":"bahnhofpl","_id":"AWFmRSOQRqXmo6ccrtcX","_score":1,"_source":{"type":"Feature","geometry":{"type":"Point","coordinates":[15.8175,52.241944]},"properties":{"name":"Zbaszynek (Zbąszynek)","UICIBNR":5100071,"UIC":5102610}}}
{"_index":"bahnhoefepl","_type":"bahnhofpl","_id":"AWFmRSOQRqXmo6ccrtca","_score":1,"_source":{"type":"Feature","geometry":{"type":"Point","coordinates":[18.864996,50.446942]},"properties":{"name":"Tarnowskie Gory (Tarnowskie Góry)","UICIBNR":5100074,"UIC":5107100}}}
{"_index":"bahnhoefepl","_type":"bahnhofpl","_id":"AWFmRSOQRqXmo6ccrtcf","_score":1,"_source":{"type":"Feature","geometry":{"type":"Point","coordinates":[15.558889,51.267774]},"properties":{"name":"Boleslawiec (Bolesławiec)","UICIBNR":5100079,"UIC":5105385}}}
{"_index":"bahnhoefepl","_type":"bahnhofpl","_id":"AWFmRSOQRqXmo6ccrtcj","_score":1,"_source":{"type":"Feature","geometry":{"type":"Point","coordinates":[14.637504,52.34167]},"properties":{"name":"Kunowice (Kunowice)","UICIBNR":5100083,"UIC":5102592}}}
{"_index":"bahnhoefepl","_type":"bahnhofpl","_id":"AWFmRSOQRqXmo6ccrtcm","_score":1,"_source":{"type":"Feature","geometry":{"type":"Point","coordinates":[23.130557,52.020279]},"properties":{"name":"Biala Podlaska (Biała Podlaska)","UICIBNR":5100086,"UIC":5104080}}}
{"_index":"bahnhoefepl","_type":"bahnhofpl","_id":"AWFmRSOQRqXmo6ccrtcv","_score":1,"_source":{"type":"Feature","geometry":{"type":"Point","coordinates":[19.264998,50.366947]},"properties":{"name":"Dabrowa Gornicza Zabkowice (Dąbrowa Górnicza Ząbkowice)","UICIBNR":5100098,"UIC":5107450}}}
{"_index":"bahnhoefepl","_type":"bahnhofpl","_id":"AWFmRSOQRqXmo6ccrtcy","_score":1,"_source":{"type":"Feature","geometry":{"type":"Point","coordinates":[18.36,50.660552]},"properties":{"name":"Fosowskie (Fosowskie)","UICIBNR":5100101,"UIC":5106150}}}
{"_index":"bahnhoefepl","_type":"bahnhofpl","_id":"AWFmRSOQRqXmo6ccrtcz","_score":1,"_source":{"type":"Feature","geometry":{"type":"Point","coordinates":[21.778058,54.03139]},"properties":{"name":"Gizycko (Giżycko)","UICIBNR":5100102,"UIC":5101260}}}
{"_index":"bahnhoefepl","_type":"bahnhofpl","_id":"AWFmRSORRqXmo6ccrtc2","_score":1,"_source":{"type":"Feature","geometry":{"type":"Point","coordinates":[15.191671,53.914998]},"properties":{"name":"Gryfice (Gryfice)","UICIBNR":5100107,"UIC":5100217}}}
{"_index":"bahnhoefepl","_type":"bahnhofpl","_id":"AWFmRSORRqXmo6ccrtc5","_score":1,"_source":{"type":"Feature","geometry":{"type":"Point","coordinates":[16.419445,53.832504]},"properties":{"name":"Grzmiaca (Grzmiąca)","UICIBNR":5100110,"UIC":5100398}}}
{"_index":"bahnhoefepl","_type":"bahnhofpl","_id":"AWFmRSORRqXmo6ccrtc6","_score":1,"_source":{"type":"Feature","geometry":{"type":"Point","coordinates":[18.880278,50.747226]},"properties":{"name":"Herby Stare (Herby Stare)","UICIBNR":5100111,"UIC":5106330}}}
{"_index":"bahnhoefepl","_type":"bahnhofpl","_id":"AWFmRSORRqXmo6ccrtc8","_score":1,"_source":{"type":"Feature","geometry":{"type":"Point","coordinates":[16.343333,50.711386]},"properties":{"name":"Jedlina-Zdroj (Jedlina-Zdrój)","UICIBNR":5100114,"UIC":5105514}}}
{"_index":"bahnhoefepl","_type":"bahnhofpl","_id":"AWFmRSORRqXmo6ccrtdB","_score":1,"_source":{"type":"Feature","geometry":{"type":"Point","coordinates":[18.205278,50.344447]},"properties":{"name":"Kedzierzyn-Kozle (Kędzierzyn-Koźle)","UICIBNR":5100119,"UIC":5106700}}}
{"_index":"bahnhoefepl","_type":"bahnhofpl","_id":"AWFmRSORRqXmo6ccrtdF","_score":1,"_source":{"type":"Feature","geometry":{"type":"Point","coordinates":[21.136112,54.172503]},"properties":{"name":"Korsze (Korsze)","UICIBNR":5100123,"UIC":5101000}}}
{"_index":"bahnhoefepl","_type":"bahnhofpl","_id":"AWFmRSORRqXmo6ccrtdH","_score":1,"_source":{"type":"Feature","geometry":{"type":"Point","coordinates":[18.869724,53.164444]},"properties":{"name":"Kowalewo Pomorskie (Kowalewo Pomorskie)","UICIBNR":5100125,"UIC":5102071}}}
{"_index":"bahnhoefepl","_type":"bahnhofpl","_id":"AWFmRSORRqXmo6ccrtdK","_score":1,"_source":{"type":"Feature","geometry":{"type":"Point","coordinates":[19.821943,49.977219]},"properties":{"name":"Skawina (Skawina)","UICIBNR":5100130,"UIC":5108010}}}
{"_index":"bahnhoefepl","_type":"bahnhofpl","_id":"AWFmRSORRqXmo6ccrtdP","_score":1,"_source":{"type":"Feature","geometry":{"type":"Point","coordinates":[15.582774,52.836113]},"properties":{"name":"Strzelce Krajenskie Wschod (Strzelce Krajeńskie Wschód)","UICIBNR":5100137,"UIC":5101430}}}
{"_index":"bahnhoefepl","_type":"bahnhofpl","_id":"AWFmRSORRqXmo6ccrtda","_score":1,"_source":{"type":"Feature","geometry":{"type":"Point","coordinates":[16.466108,53.033615]},"properties":{"name":"Trzcianka (Trzcianka)","UICIBNR":5100149,"UIC":5101454}}}
{"_index":"bahnhoefepl","_type":"bahnhofpl","_id":"AWFmRSORRqXmo6ccrtdb","_score":1,"_source":{"type":"Feature","geometry":{"type":"Point","coordinates":[15.2775,54.06056]},"properties":{"name":"Trzebiatow (Trzebiatów)","UICIBNR":5100150,"UIC":5100214}}}
{"_index":"bahnhoefepl","_type":"bahnhofpl","_id":"AWFmRSORRqXmo6ccrtdc","_score":1,"_source":{"type":"Feature","geometry":{"type":"Point","coordinates":[19.992225,50.435004]},"properties":{"name":"Tunel (Tunel)","UICIBNR":5100151,"UIC":5106462}}}
{"_index":"bahnhoefepl","_type":"bahnhofpl","_id":"AWFmRSORRqXmo6ccrtdf","_score":1,"_source":{"type":"Feature","geometry":{"type":"Point","coordinates":[20.014447,50.837775]},"properties":{"name":"Wloszczowa (Włoszczowa)","UICIBNR":5100154,"UIC":5106480}}}
{"_index":"bahnhoefepl","_type":"bahnhofpl","_id":"AWFmRSORRqXmo6ccrtdj","_score":1,"_source":{"type":"Feature","geometry":{"type":"Point","coordinates":[14.668885,51.735554]},"properties":{"name":"Zasieki (Zasieki)","UICIBNR":5100159,"UIC":5104171}}}
{"_index":"bahnhoefepl","_type":"bahnhofpl","_id":"AWFmRSORRqXmo6ccrtdu","_score":1,"_source":{"type":"Feature","geometry":{"type":"Point","coordinates":[17.71639,51.074443]},"properties":{"name":"Namyslow (Namysłów)","UICIBNR":5100177,"UIC":5106230}}}
{"_index":"bahnhoefepl","_type":"bahnhofpl","_id":"AWFmRSORRqXmo6ccrtdv","_score":1,"_source":{"type":"Feature","geometry":{"type":"Point","coordinates":[16.496941,50.577222]},"properties":{"name":"Nowa Ruda (Nowa Ruda)","UICIBNR":5100179,"UIC":5105794}}}
{"_index":"bahnhoefepl","_type":"bahnhofpl","_id":"AWFmRSORRqXmo6ccrtd0","_score":1,"_source":{"type":"Feature","geometry":{"type":"Point","coordinates":[19.325001,51.660836]},"properties":{"name":"Pabianice (Pabianice)","UICIBNR":5100188,"UIC":5104658}}}
{"_index":"bahnhoefepl","_type":"bahnhofpl","_id":"AWFmRSORRqXmo6ccrtd8","_score":1,"_source":{"type":"Feature","geometry":{"type":"Point","coordinates":[15.031115,53.339446]},"properties":{"name":"Stargard Szczecinski (Stargard Szczeciński)","UICIBNR":5100198,"UIC":5100220}}}
{"_index":"bahnhoefepl","_type":"bahnhofpl","_id":"AWFmRSORRqXmo6ccrteE","_score":1,"_source":{"type":"Feature","geometry":{"type":"Point","coordinates":[20.053334,50.564997]},"properties":{"name":"Sedziszow (Sędziszów)","UICIBNR":5100208,"UIC":5106430}}}
{"_index":"bahnhoefepl","_type":"bahnhofpl","_id":"AWFmRSORRqXmo6ccrteP","_score":1,"_source":{"type":"Feature","geometry":{"type":"Point","coordinates":[17.94611,52.658612]},"properties":{"name":"Mogilno (Mogilno)","UICIBNR":5100220,"UIC":5103200}}}
{"_index":"bahnhoefepl","_type":"bahnhofpl","_id":"AWFmRSORRqXmo6ccrtel","_score":1,"_source":{"type":"Feature","geometry":{"type":"Point","coordinates":[15.137781,51.634444]},"properties":{"name":"Zary (Żary)","UICIBNR":5100243,"UIC":5104155}}}
{"_index":"bahnhoefepl","_type":"bahnhofpl","_id":"AWFmRSORRqXmo6ccrtem","_score":1,"_source":{"type":"Feature","geometry":{"type":"Point","coordinates":[14.939721,51.015554]},"properties":{"name":"Krzewina Zgorzelecka (Krzewina Zgorzelecka)","UICIBNR":5100244,"UIC":5105285}}}
{"_index":"bahnhoefepl","_type":"bahnhofpl","_id":"AWFmRSORRqXmo6ccrten","_score":1,"_source":{"type":"Feature","geometry":{"type":"Point","coordinates":[17.364445,51.216113]},"properties":{"name":"Olesnica Rataje (Oleśnica Rataje)","UICIBNR":5100245,"UIC":5105957}}}
{"_index":"bahnhoefepl","_type":"bahnhofpl","_id":"AWFmRSORRqXmo6ccrteq","_score":1,"_source":{"type":"Feature","geometry":{"type":"Point","coordinates":[20.413891,53.357226]},"properties":{"name":"Nidzica (Nidzica)","UICIBNR":5100248,"UIC":5102220}}}
{"_index":"bahnhoefepl","_type":"bahnhofpl","_id":"AWFmRSOSRqXmo6ccrte1","_score":1,"_source":{"type":"Feature","geometry":{"type":"Point","coordinates":[18.964165,50.13694]},"properties":{"name":"Tychy (Tychy)","UICIBNR":5100260,"UIC":5107370}}}
{"_index":"bahnhoefepl","_type":"bahnhofpl","_id":"AWFmRSOSRqXmo6ccrte8","_score":1,"_source":{"type":"Feature","geometry":{"type":"Point","coordinates":[18.982503,50.117226]},"properties":{"name":"Tychy Aleja Bielska (Tychy Aleja Bielska)","UICIBNR":5100278,"UIC":5107378}}}
{"_index":"bahnhoefepl","_type":"bahnhofpl","_id":"AWFmRSOSRqXmo6ccrtfA","_score":1,"_source":{"type":"Feature","geometry":{"type":"Point","coordinates":[14.780837,52.641946]},"properties":{"name":"Kamien Maly (Kamień Mały)","UICIBNR":5100296,"UIC":5101405}}}
{"_index":"bahnhoefepl","_type":"bahnhofpl","_id":"AWFmRSOSRqXmo6ccrtfE","_score":1,"_source":{"type":"Feature","geometry":{"type":"Point","coordinates":[23.493892,51.141107]},"properties":{"name":"Chelm (Chełm)","UICIBNR":5100303,"UIC":5105090}}}
{"_index":"bahnhoefepl","_type":"bahnhofpl","_id":"AWFmRSOSRqXmo6ccrtfJ","_score":1,"_source":{"type":"Feature","geometry":{"type":"Point","coordinates":[19.736114,53.921111]},"properties":{"name":"Maldyty (Małdyty)","UICIBNR":5100309,"UIC":5101098}}}
{"_index":"bahnhoefepl","_type":"bahnhofpl","_id":"AWFmRSOSRqXmo6ccrtfK","_score":1,"_source":{"type":"Feature","geometry":{"type":"Point","coordinates":[19.922496,53.919169]},"properties":{"name":"Morag (Morąg)","UICIBNR":5100310,"UIC":5101090}}}
{"_index":"bahnhoefepl","_type":"bahnhofpl","_id":"AWFmRSOSRqXmo6ccrtfL","_score":1,"_source":{"type":"Feature","geometry":{"type":"Point","coordinates":[19.65611,54.056947]},"properties":{"name":"Paslek (Pasłęk)","UICIBNR":5100311,"UIC":5101093}}}
{"_index":"bahnhoefepl","_type":"bahnhofpl","_id":"AWFmRSOSRqXmo6ccrtfN","_score":1,"_source":{"type":"Feature","geometry":{"type":"Point","coordinates":[22.060553,50.562777]},"properties":{"name":"Stalowa Wola (Stalowa Wola)","UICIBNR":5100313,"UIC":5106503}}}
{"_index":"bahnhoefepl","_type":"bahnhofpl","_id":"AWFmRSOSRqXmo6ccrtfO","_score":1,"_source":{"type":"Feature","geometry":{"type":"Point","coordinates":[22.041946,50.591389]},"properties":{"name":"Stalowa Wola Rozwadow (Stalowa Wola-Rozwadów)","UICIBNR":5100314,"UIC":5106500}}}
{"_index":"bahnhoefepl","_type":"bahnhofpl","_id":"AWFmRSOSRqXmo6ccrtfT","_score":1,"_source":{"type":"Feature","geometry":{"type":"Point","coordinates":[22.161107,51.754719]},"properties":{"name":"Hordziezka (Hordzieżka)","UICIBNR":5100320,"UIC":5104014}}}
{"_index":"bahnhoefepl","_type":"bahnhofpl","_id":"AWFmRSOSRqXmo6ccrtfU","_score":1,"_source":{"type":"Feature","geometry":{"type":"Point","coordinates":[23.066392,51.128333]},"properties":{"name":"Wolka Kanska (Wólka Kańska)","UICIBNR":5100322,"UIC":5105083}}}
{"_index":"bahnhoefepl","_type":"bahnhofpl","_id":"AWFmRSOSRqXmo6ccrtfW","_score":1,"_source":{"type":"Feature","geometry":{"type":"Point","coordinates":[20.089165,54.258889]},"properties":{"name":"Zugienie (Żugienie)","UICIBNR":5100324,"UIC":5101132}}}
{"_index":"bahnhoefepl","_type":"bahnhofpl","_id":"AWFmRSOSRqXmo6ccrtfg","_score":1,"_source":{"type":"Feature","geometry":{"type":"Point","coordinates":[17.486671,53.12917]},"properties":{"name":"Anieliny (Anieliny)","UICIBNR":5100337,"UIC":5101824}}}
{"_index":"bahnhoefepl","_type":"bahnhofpl","_id":"AWFmRSOSRqXmo6ccrtfi","_score":1,"_source":{"type":"Feature","geometry":{"type":"Point","coordinates":[18.696385,52.875836]},"properties":{"name":"Aleksandrow Kujawski (Aleksandrów Kujawski)","UICIBNR":5100339,"UIC":5102150}}}
{"_index":"bahnhoefepl","_type":"bahnhofpl","_id":"AWFmRSOSRqXmo6ccrtfl","_score":1,"_source":{"type":"Feature","geometry":{"type":"Point","coordinates":[20.318336,52.659726]},"properties":{"name":"Arcelin (Arcelin)","UICIBNR":5100345,"UIC":5103677}}}
{"_index":"bahnhoefepl","_type":"bahnhofpl","_id":"AWFmRSOSRqXmo6ccrtfs","_score":1,"_source":{"type":"Feature","geometry":{"type":"Point","coordinates":[21.648056,52.517778]},"properties":{"name":"Barchow (Barchów)","UICIBNR":5100359,"UIC":5103792}}}
{"_index":"bahnhoefepl","_type":"bahnhofpl","_id":"AWFmRSOSRqXmo6ccrtfy","_score":1,"_source":{"type":"Feature","geometry":{"type":"Point","coordinates":[23.247777,50.178614]},"properties":{"name":"Basznia (Basznia)","UICIBNR":5100369,"UIC":5108483}}}
{"_index":"bahnhoefepl","_type":"bahnhofpl","_id":"AWFmRSOSRqXmo6ccrtf1","_score":1,"_source":{"type":"Feature","geometry":{"type":"Point","coordinates":[19.71694,51.536947]},"properties":{"name":"Baby (Baby)","UICIBNR":5100372,"UIC":5104739}}}
{"_index":"bahnhoefepl","_type":"bahnhofpl","_id":"AWFmRSOSRqXmo6ccrtgA","_score":1,"_source":{"type":"Feature","geometry":{"type":"Point","coordinates":[17.482779,53.671112]},"properties":{"name":"Brzezno Czluchowskie (Brzeźno Człuchowskie)","UICIBNR":5100396,"UIC":5101558}}}
{"_index":"bahnhoefepl","_type":"bahnhofpl","_id":"AWFmRSOSRqXmo6ccrtgB","_score":1,"_source":{"type":"Feature","geometry":{"type":"Point","coordinates":[14.94889,52.326946]},"properties":{"name":"Boczow (Boczów)","UICIBNR":5100397,"UIC":5102597}}}
{"_index":"bahnhoefepl","_type":"bahnhofpl","_id":"AWFmRSOSRqXmo6ccrtgT","_score":1,"_source":{"type":"Feature","geometry":{"type":"Point","coordinates":[15.918889,51.690833]},"properties":{"name":"Brzeg Glogowski (Brzeg Głogowski)","UICIBNR":5100422,"UIC":5104247}}}
{"_index":"bahnhoefepl","_type":"bahnhofpl","_id":"AWFmRSOSRqXmo6ccrtgZ","_score":1,"_source":{"type":"Feature","geometry":{"type":"Point","coordinates":[23.071669,53.151113]},"properties":{"name":"Bialystok Bacieczki (Białystok Bacieczki)","UICIBNR":5100433,"UIC":5102405}}}
{"_index":"bahnhoefepl","_type":"bahnhofpl","_id":"AWFmRSOSRqXmo6ccrtgm","_score":1,"_source":{"type":"Feature","geometry":{"type":"Point","coordinates":[17.128613,53.66028]},"properties":{"name":"Bincze (Bińcze)","UICIBNR":5100457,"UIC":5100317}}}
{"_index":"bahnhoefepl","_type":"bahnhofpl","_id":"AWFmRSOSRqXmo6ccrtgn","_score":1,"_source":{"type":"Feature","geometry":{"type":"Point","coordinates":[20.375274,53.467497]},"properties":{"name":"Bujaki (Bujaki)","UICIBNR":5100458,"UIC":5100947}}}
{"_index":"bahnhoefepl","_type":"bahnhofpl","_id":"AWFmRSOTRqXmo6ccrtgz","_score":1,"_source":{"type":"Feature","geometry":{"type":"Point","coordinates":[17.583332,51.388058]},"properties":{"name":"Bukowina Sycowska (Bukowina Sycowska)","UICIBNR":5100477,"UIC":5104613}}}
{"_index":"bahnhoefepl","_type":"bahnhofpl","_id":"AWFmRSOTRqXmo6ccrtg8","_score":1,"_source":{"type":"Feature","geometry":{"type":"Point","coordinates":[22.947501,51.160559]},"properties":{"name":"Biskupice Lubelskie (Biskupice Lubelskie)","UICIBNR":5100488,"UIC":5105067}}}
{"_index":"bahnhoefepl","_type":"bahnhofpl","_id":"AWFmRSOTRqXmo6ccrthL","_score":1,"_source":{"type":"Feature","geometry":{"type":"Point","coordinates":[22.949721,53.027781]},"properties":{"name":"Bojary (Bojary)","UICIBNR":5100517,"UIC":5102455}}}
{"_index":"bahnhoefepl","_type":"bahnhofpl","_id":"AWFmRSOTRqXmo6ccrthR","_score":1,"_source":{"type":"Feature","geometry":{"type":"Point","coordinates":[16.335836,51.960554]},"properties":{"name":"Boszkowo (Boszkowo)","UICIBNR":5100526,"UIC":5104335}}}
{"_index":"bahnhoefepl","_type":"bahnhofpl","_id":"AWFmRSOTRqXmo6ccrthU","_score":1,"_source":{"type":"Feature","geometry":{"type":"Point","coordinates":[17.433886,51.733334]},"properties":{"name":"Bozacin (Bożacin)","UICIBNR":5100533,"UIC":5104625}}}
{"_index":"bahnhoefepl","_type":"bahnhofpl","_id":"AWFmRSOTRqXmo6ccrthV","_score":1,"_source":{"type":"Feature","geometry":{"type":"Point","coordinates":[16.516942,53.061113]},"properties":{"name":"Biala Pilska (Biała Pilska)","UICIBNR":5100537,"UIC":5101453}}}
{"_index":"bahnhoefepl","_type":"bahnhofpl","_id":"AWFmRSOTRqXmo6ccrthb","_score":1,"_source":{"type":"Feature","geometry":{"type":"Point","coordinates":[17.024446,50.878891]},"properties":{"name":"Boreczek (Boreczek)","UICIBNR":5100548,"UIC":5106016}}}
{"_index":"bahnhoefepl","_type":"bahnhofpl","_id":"AWFmRSOTRqXmo6ccrtho","_score":1,"_source":{"type":"Feature","geometry":{"type":"Point","coordinates":[16.83694,51.219726]},"properties":{"name":"Brzezinka Sredzka (Brzezinka Średzka)","UICIBNR":5100574,"UIC":5106028}}}
{"_index":"bahnhoefepl","_type":"bahnhofpl","_id":"AWFmRSOTRqXmo6ccrthp","_score":1,"_source":{"type":"Feature","geometry":{"type":"Point","coordinates":[22.309447,52.128608]},"properties":{"name":"Bialki Siedleckie (Białki Siedleckie)","UICIBNR":5100575,"UIC":5103946}}}
{"_index":"bahnhoefepl","_type":"bahnhofpl","_id":"AWFmRSOTRqXmo6ccrths","_score":1,"_source":{"type":"Feature","geometry":{"type":"Point","coordinates":[23.086115,53.121943]},"properties":{"name":"Bialystok Starosielce (Białystok Starosielce)","UICIBNR":5100579,"UIC":5102404}}}
{"_index":"bahnhoefepl","_type":"bahnhofpl","_id":"AWFmRSOTRqXmo6ccrthz","_score":1,"_source":{"type":"Feature","geometry":{"type":"Point","coordinates":[18.267501,53.931943]},"properties":{"name":"Bytonia (Bytonia)","UICIBNR":5100590,"UIC":5100869}}}
{"_index":"bahnhoefepl","_type":"bahnhofpl","_id":"AWFmRSOTRqXmo6ccrth5","_score":1,"_source":{"type":"Feature","geometry":{"type":"Point","coordinates":[15.08167,52.15278]},"properties":{"name":"Budachow (Budachów)","UICIBNR":5100600,"UIC":5102756}}}
{"_index":"bahnhoefepl","_type":"bahnhofpl","_id":"AWFmRSOTRqXmo6ccrth9","_score":1,"_source":{"type":"Feature","geometry":{"type":"Point","coordinates":[19.290554,49.87583]},"properties":{"name":"Bulowice (Bulowice)","UICIBNR":5100608,"UIC":5107625}}}
{"_index":"bahnhoefepl","_type":"bahnhofpl","_id":"AWFmRSOTRqXmo6ccrtiB","_score":1,"_source":{"type":"Feature","geometry":{"type":"Point","coordinates":[20.135001,53.275559]},"properties":{"name":"Burkat (Burkat)","UICIBNR":5100614,"UIC":5102245}}}
{"_index":"bahnhoefepl","_type":"bahnhofpl","_id":"AWFmRSOTRqXmo6ccrtiC","_score":1,"_source":{"type":"Feature","geometry":{"type":"Point","coordinates":[17.728058,53.882502]},"properties":{"name":"Brusy (Brusy)","UICIBNR":5100615,"UIC":5101566}}}
{"_index":"bahnhoefepl","_type":"bahnhofpl","_id":"AWFmRSOTRqXmo6ccrtiG","_score":1,"_source":{"type":"Feature","geometry":{"type":"Point","coordinates":[17.277501,51.184165]},"properties":{"name":"Borowa Olesnicka (Borowa Oleśnicka)","UICIBNR":5100628,"UIC":5105934}}}
{"_index":"bahnhoefepl","_type":"bahnhofpl","_id":"AWFmRSOTRqXmo6ccrtiH","_score":1,"_source":{"type":"Feature","geometry":{"type":"Point","coordinates":[19.621393,49.864998]},"properties":{"name":"Barwald Gorny (Barwałd Górny)","UICIBNR":5100629,"UIC":5107832}}}
{"_index":"bahnhoefepl","_type":"bahnhofpl","_id":"AWFmRSOTRqXmo6ccrtiJ","_score":1,"_source":{"type":"Feature","geometry":{"type":"Point","coordinates":[20.718059,52.141669]},"properties":{"name":"Brwinow (Brwinów)","UICIBNR":5100633,"UIC":5103413}}}
{"_index":"bahnhoefepl","_type":"bahnhofpl","_id":"AWFmRSOTRqXmo6ccrtiN","_score":1,"_source":{"type":"Feature","geometry":{"type":"Point","coordinates":[18.055275,53.131669]},"properties":{"name":"Bydgoszcz Bielawy (Bydgoszcz Bielawy)","UICIBNR":5100642,"UIC":5101672}}}
{"_index":"bahnhoefepl","_type":"bahnhofpl","_id":"AWFmRSOTRqXmo6ccrtiT","_score":1,"_source":{"type":"Feature","geometry":{"type":"Point","coordinates":[15.148334,52.131385]},"properties":{"name":"Bytnica (Bytnica)","UICIBNR":5100649,"UIC":5102755}}}
{"_index":"bahnhoefepl","_type":"bahnhofpl","_id":"AWFmRSOTRqXmo6ccrtiV","_score":1,"_source":{"type":"Feature","geometry":{"type":"Point","coordinates":[18.881671,50.351944]},"properties":{"name":"Bytom Karb (Bytom Karb)","UICIBNR":5100651,"UIC":5107241}}}
{"_index":"bahnhoefepl","_type":"bahnhofpl","_id":"AWFmRSOTRqXmo6ccrtiY","_score":1,"_source":{"type":"Feature","geometry":{"type":"Point","coordinates":[15.821671,51.726385]},"properties":{"name":"Bytom Odrzanski (Bytom Odrzański)","UICIBNR":5100654,"UIC":5104212}}}
{"_index":"bahnhoefepl","_type":"bahnhofpl","_id":"AWFmRSOTRqXmo6ccrtik","_score":1,"_source":{"type":"Feature","geometry":{"type":"Point","coordinates":[20.610557,49.986667]},"properties":{"name":"Brzesko Okocim (Brzesko Okocim)","UICIBNR":5100671,"UIC":5107980}}}
{"_index":"bahnhoefepl","_type":"bahnhofpl","_id":"AWFmRSOURqXmo6ccrtin","_score":1,"_source":{"type":"Feature","geometry":{"type":"Point","coordinates":[15.954442,53.256664]},"properties":{"name":"Bialy Zdroj Poludniowy (Biały Zdrój Południowy)","UICIBNR":5100678,"UIC":5101503}}}
{"_index":"bahnhoefepl","_type":"bahnhofpl","_id":"AWFmRSOURqXmo6ccrtip","_score":1,"_source":{"type":"Feature","geometry":{"type":"Point","coordinates":[20.699721,53.844442]},"properties":{"name":"Barczewo (Barczewo)","UICIBNR":5100683,"UIC":5100936}}}
{"_index":"bahnhoefepl","_type":"bahnhofpl","_id":"AWFmRSOURqXmo6ccrtiq","_score":1,"_source":{"type":"Feature","geometry":{"type":"Point","coordinates":[19.154997,49.995836]},"properties":{"name":"Brzeszcze (Brzeszcze)","UICIBNR":5100685,"UIC":5107719}}}
{"_index":"bahnhoefepl","_type":"bahnhofpl","_id":"AWFmRSOURqXmo6ccrtiy","_score":1,"_source":{"type":"Feature","geometry":{"type":"Point","coordinates":[21.736393,52.14833]},"properties":{"name":"Ceglow (Cegłów)","UICIBNR":5100700,"UIC":5103988}}}
{"_index":"bahnhoefepl","_type":"bahnhofpl","_id":"AWFmRSOURqXmo6ccrti1","_score":1,"_source":{"type":"Feature","geometry":{"type":"Point","coordinates":[20.396668,53.909721]},"properties":{"name":"Cerkiewnik (Cerkiewnik)","UICIBNR":5100705,"UIC":5100926}}}
{"_index":"bahnhoefepl","_type":"bahnhofpl","_id":"AWFmRSOURqXmo6ccrti8","_score":1,"_source":{"type":"Feature","geometry":{"type":"Point","coordinates":[16.919443,54.532224]},"properties":{"name":"Charnowo Slupskie (Charnowo Słupskie)","UICIBNR":5100719,"UIC":5100497}}}
{"_index":"bahnhoefepl","_type":"bahnhofpl","_id":"AWFmRSOURqXmo6ccrti-","_score":1,"_source":{"type":"Feature","geometry":{"type":"Point","coordinates":[21.445278,52.034724]},"properties":{"name":"Chrosna (Chrosna)","UICIBNR":5100722,"UIC":5103896}}}
{"_index":"bahnhoefepl","_type":"bahnhofpl","_id":"AWFmRSOURqXmo6ccrtjK","_score":1,"_source":{"type":"Feature","geometry":{"type":"Point","coordinates":[18.647502,54.234448]},"properties":{"name":"Cieplewo (Cieplewo)","UICIBNR":5100743,"UIC":5100732}}}
{"_index":"bahnhoefepl","_type":"bahnhofpl","_id":"AWFmRSOURqXmo6ccrtjS","_score":1,"_source":{"type":"Feature","geometry":{"type":"Point","coordinates":[16.825281,52.560279]},"properties":{"name":"Chludowo (Chludowo)","UICIBNR":5100759,"UIC":5102869}}}
{"_index":"bahnhoefepl","_type":"bahnhofpl","_id":"AWFmRSOURqXmo6ccrtjY","_score":1,"_source":{"type":"Feature","geometry":{"type":"Point","coordinates":[18.603886,49.78556]},"properties":{"name":"Cieszyn Marklowice (Cieszyn Marklowice)","UICIBNR":5100767,"UIC":5107564}}}
