{"_index":"bahnhoefenl","_type":"bahnhofnl","_id":"AWKk6m5AhtuDxSpydeyz","_score":1,"_source":{"type":"Feature","geometry":{"type":"Point","coordinates":[5.317389,51.700559]},"properties":{"name":"’s-Hertogenbosch Oost","UICIBNR":8400320,"abkuerzung":"","countryCode":"NL","sncf_id":"","benerail_id":"NLHTO"}}}
{"_index":"bahnhoefenl","_type":"bahnhofnl","_id":"AWKk6m5AhtuDxSpydezB","_score":1,"_source":{"type":"Feature","geometry":{"type":"Point","coordinates":[5.152167,52.342739]},"properties":{"name":"Almere Poort","UICIBNR":8400450,"abkuerzung":"","countryCode":"NL","sncf_id":"","benerail_id":"NLAPT"}}}
{"_index":"bahnhoefenl","_type":"bahnhofnl","_id":"AWKk6m5AhtuDxSpydezD","_score":1,"_source":{"type":"Feature","geometry":{"type":"Point","coordinates":[5.371198,52.15366]},"properties":{"name":"Amersfoort","UICIBNR":8400055,"abkuerzung":"","countryCode":"NL","sncf_id":"NLAOO","benerail_id":"NLAMF"}}}
{"_index":"bahnhoefenl","_type":"bahnhofnl","_id":"AWKk6m5AhtuDxSpydezL","_score":1,"_source":{"type":"Feature","geometry":{"type":"Point","coordinates":[4.890725,52.336689]},"properties":{"name":"Amsterdam RAI","UICIBNR":8400056,"abkuerzung":"","countryCode":"NL","sncf_id":"","benerail_id":"NLRAI"}}}
{"_index":"bahnhoefenl","_type":"bahnhofnl","_id":"AWKk6m5BhtuDxSpydeza","_score":1,"_source":{"type":"Feature","geometry":{"type":"Point","coordinates":[5.851923,51.954837]},"properties":{"name":"Arnhem Zuid","UICIBNR":8400227,"abkuerzung":"","countryCode":"NL","sncf_id":"","benerail_id":"NLAHZ"}}}
{"_index":"bahnhoefenl","_type":"bahnhofnl","_id":"AWKk6m5BhtuDxSpydezb","_score":1,"_source":{"type":"Feature","geometry":{"type":"Point","coordinates":[6.567815,52.991599]},"properties":{"name":"Assen","UICIBNR":8400073,"abkuerzung":"","countryCode":"NL","sncf_id":"NLABU","benerail_id":"NLASN"}}}
{"_index":"bahnhoefenl","_type":"bahnhofnl","_id":"AWKk6m5BhtuDxSpydezd","_score":1,"_source":{"type":"Feature","geometry":{"type":"Point","coordinates":[7.200222,53.184656]},"properties":{"name":"Bad Nieuweschans","UICIBNR":8400457,"abkuerzung":"","countryCode":"NL","sncf_id":"NLAAX","benerail_id":"NLNWS"}}}
{"_index":"bahnhoefenl","_type":"bahnhofnl","_id":"AWKk6m5BhtuDxSpydezf","_score":1,"_source":{"type":"Feature","geometry":{"type":"Point","coordinates":[4.552856,51.854553]},"properties":{"name":"Barendrecht","UICIBNR":8400090,"abkuerzung":"","countryCode":"NL","sncf_id":"","benerail_id":"NLBRD"}}}
{"_index":"bahnhoefenl","_type":"bahnhofnl","_id":"AWKk6m5BhtuDxSpydezh","_score":1,"_source":{"type":"Feature","geometry":{"type":"Point","coordinates":[5.5980553627,52.1613883972]},"properties":{"name":"Barneveld Noord","UICIBNR":8400092,"abkuerzung":"","countryCode":"NL","sncf_id":"","benerail_id":"NLBNN"}}}
{"_index":"bahnhoefenl","_type":"bahnhofnl","_id":"AWKk6m5BhtuDxSpydezi","_score":1,"_source":{"type":"Feature","geometry":{"type":"Point","coordinates":[5.60246,52.128853]},"properties":{"name":"Barneveld Zuid","UICIBNR":8400115,"abkuerzung":"","countryCode":"NL","sncf_id":"","benerail_id":"NLBNZ"}}}
{"_index":"bahnhoefenl","_type":"bahnhofnl","_id":"AWKk6m5BhtuDxSpydezn","_score":1,"_source":{"type":"Feature","geometry":{"type":"Point","coordinates":[4.296088,51.494445]},"properties":{"name":"Bergen op Zoom","UICIBNR":8400108,"abkuerzung":"","countryCode":"NL","sncf_id":"NLABT","benerail_id":"NLBGZ"}}}
{"_index":"bahnhoefenl","_type":"bahnhofnl","_id":"AWKk6m5BhtuDxSpydezs","_score":1,"_source":{"type":"Feature","geometry":{"type":"Point","coordinates":[4.627574,52.404324]},"properties":{"name":"Bloemendaal","UICIBNR":8400118,"abkuerzung":"","countryCode":"NL","sncf_id":"","benerail_id":"NLBMD"}}}
{"_index":"bahnhoefenl","_type":"bahnhofnl","_id":"AWKk6m5BhtuDxSpydezv","_score":1,"_source":{"type":"Feature","geometry":{"type":"Point","coordinates":[4.647737,52.076676]},"properties":{"name":"Boskoop","UICIBNR":8400125,"abkuerzung":"","countryCode":"NL","sncf_id":"","benerail_id":"NLBKP"}}}
{"_index":"bahnhoefenl","_type":"bahnhofnl","_id":"AWKk6m5BhtuDxSpydez-","_score":1,"_source":{"type":"Feature","geometry":{"type":"Point","coordinates":[4.658983,52.545446]},"properties":{"name":"Castricum","UICIBNR":8400151,"abkuerzung":"","countryCode":"NL","sncf_id":"NLAAH","benerail_id":"NLCTC"}}}
{"_index":"bahnhoefenl","_type":"bahnhofnl","_id":"AWKk6m5BhtuDxSpyde0G","_score":1,"_source":{"type":"Feature","geometry":{"type":"Point","coordinates":[6.951097,52.221133]},"properties":{"name":"De Eschmarke","UICIBNR":8400217,"abkuerzung":"","countryCode":"NL","sncf_id":"","benerail_id":"NLESE"}}}
{"_index":"bahnhoefenl","_type":"bahnhofnl","_id":"AWKk6m5ChtuDxSpyde0Q","_score":1,"_source":{"type":"Feature","geometry":{"type":"Point","coordinates":[4.322669,52.069584]},"properties":{"name":"Den Haag HS","UICIBNR":8400280,"abkuerzung":"","countryCode":"NL","sncf_id":"NLABL","benerail_id":"NLDHH"}}}
{"_index":"bahnhoefenl","_type":"bahnhofnl","_id":"AWKk6m5ChtuDxSpyde0S","_score":1,"_source":{"type":"Feature","geometry":{"type":"Point","coordinates":[4.368973,52.090529]},"properties":{"name":"Den Haag Mariahoeve","UICIBNR":8400278,"abkuerzung":"","countryCode":"NL","sncf_id":"","benerail_id":"NLDHM"}}}
{"_index":"bahnhoefenl","_type":"bahnhofnl","_id":"AWKk6m5ChtuDxSpyde0T","_score":1,"_source":{"type":"Feature","geometry":{"type":"Point","coordinates":[4.308547,52.053862]},"properties":{"name":"Den Haag Moerwijk","UICIBNR":8400279,"abkuerzung":"","countryCode":"NL","sncf_id":"","benerail_id":"NLDHW"}}}
{"_index":"bahnhoefenl","_type":"bahnhofnl","_id":"AWKk6m5ChtuDxSpyde0V","_score":1,"_source":{"type":"Feature","geometry":{"type":"Point","coordinates":[4.76048,52.954572]},"properties":{"name":"Den Helder","UICIBNR":8400311,"abkuerzung":"","countryCode":"NL","sncf_id":"NLAAO","benerail_id":"NLDHD"}}}
{"_index":"bahnhoefenl","_type":"bahnhofnl","_id":"AWKk6m5ChtuDxSpyde0e","_score":1,"_source":{"type":"Feature","geometry":{"type":"Point","coordinates":[6.2962148,51.9585962]},"properties":{"name":"Doetinchem","UICIBNR":8400177,"abkuerzung":"","countryCode":"NL","sncf_id":"","benerail_id":"NLDTC"}}}
{"_index":"bahnhoefenl","_type":"bahnhofnl","_id":"AWKk6m5ChtuDxSpyde0f","_score":1,"_source":{"type":"Feature","geometry":{"type":"Point","coordinates":[6.2598521,51.9591413]},"properties":{"name":"Doetinchem de Huet","UICIBNR":8400184,"abkuerzung":"","countryCode":"NL","sncf_id":"","benerail_id":"NLDTH"}}}
{"_index":"bahnhoefenl","_type":"bahnhofnl","_id":"AWKk6m5ChtuDxSpyde0j","_score":1,"_source":{"type":"Feature","geometry":{"type":"Point","coordinates":[5.259309,52.065242]},"properties":{"name":"Driebergen-Zeist","UICIBNR":8400182,"abkuerzung":"","countryCode":"NL","sncf_id":"","benerail_id":"NLDBZ"}}}
{"_index":"bahnhoefenl","_type":"bahnhofnl","_id":"AWKk6m5ChtuDxSpyde0l","_score":1,"_source":{"type":"Feature","geometry":{"type":"Point","coordinates":[5.6347411,53.1778086]},"properties":{"name":"Dronrijp","UICIBNR":8400192,"abkuerzung":"","countryCode":"NL","sncf_id":"","benerail_id":"NLDRP"}}}
{"_index":"bahnhoefenl","_type":"bahnhofnl","_id":"AWKk6m5ChtuDxSpyde0o","_score":1,"_source":{"type":"Feature","geometry":{"type":"Point","coordinates":[4.936552,52.323556]},"properties":{"name":"Duivendrecht","UICIBNR":8400194,"abkuerzung":"","countryCode":"NL","sncf_id":"NLDAA","benerail_id":"NLDVD"}}}
{"_index":"bahnhoefenl","_type":"bahnhofnl","_id":"AWKk6m5ChtuDxSpyde0t","_score":1,"_source":{"type":"Feature","geometry":{"type":"Point","coordinates":[5.709786,50.772135]},"properties":{"name":"Eijsden","UICIBNR":8400219,"abkuerzung":"","countryCode":"NL","sncf_id":"","benerail_id":"NLEDN"}}}
{"_index":"bahnhoefenl","_type":"bahnhofnl","_id":"AWKk6m5ChtuDxSpyde0u","_score":1,"_source":{"type":"Feature","geometry":{"type":"Point","coordinates":[5.47995,51.443063]},"properties":{"name":"Eindhoven","UICIBNR":8400206,"abkuerzung":"","countryCode":"NL","sncf_id":"NLEIN","benerail_id":"NLEHV"}}}
{"_index":"bahnhoefenl","_type":"bahnhofnl","_id":"AWKk6m5ChtuDxSpyde0v","_score":1,"_source":{"type":"Feature","geometry":{"type":"Point","coordinates":[5.457054,51.450362]},"properties":{"name":"Eindhoven Strijp-S","UICIBNR":8400196,"abkuerzung":"","countryCode":"NL","sncf_id":"","benerail_id":"NLEHB"}}}
{"_index":"bahnhoefenl","_type":"bahnhofnl","_id":"AWKk6m5ChtuDxSpyde0w","_score":1,"_source":{"type":"Feature","geometry":{"type":"Point","coordinates":[5.855024,51.91719]},"properties":{"name":"Elst","UICIBNR":8400207,"abkuerzung":"","countryCode":"NL","sncf_id":"","benerail_id":"NLELT"}}}
{"_index":"bahnhoefenl","_type":"bahnhofnl","_id":"AWKk6m5ChtuDxSpyde0y","_score":1,"_source":{"type":"Feature","geometry":{"type":"Point","coordinates":[6.873871,52.748386]},"properties":{"name":"Emmen Zuid","UICIBNR":8400407,"abkuerzung":"","countryCode":"NL","sncf_id":"","benerail_id":"NLEMZ"}}}
{"_index":"bahnhoefenl","_type":"bahnhofnl","_id":"AWKk6m5ChtuDxSpyde01","_score":1,"_source":{"type":"Feature","geometry":{"type":"Point","coordinates":[6.838993,52.237287]},"properties":{"name":"Enschede Kennispark","UICIBNR":8400221,"abkuerzung":"","countryCode":"NL","sncf_id":"","benerail_id":"NLEDL"}}}
{"_index":"bahnhoefenl","_type":"bahnhofnl","_id":"AWKk6m5ChtuDxSpyde02","_score":1,"_source":{"type":"Feature","geometry":{"type":"Point","coordinates":[5.614482,52.301254]},"properties":{"name":"Ermelo","UICIBNR":8400216,"abkuerzung":"","countryCode":"NL","sncf_id":"","benerail_id":"NLEML"}}}
{"_index":"bahnhoefenl","_type":"bahnhofnl","_id":"AWKk6m5DhtuDxSpyde09","_score":1,"_source":{"type":"Feature","geometry":{"type":"Point","coordinates":[5.271454,51.882339]},"properties":{"name":"Geldermalsen","UICIBNR":8400244,"abkuerzung":"","countryCode":"NL","sncf_id":"","benerail_id":"NLGDM"}}}
{"_index":"bahnhoefenl","_type":"bahnhofnl","_id":"AWKk6m5DhtuDxSpyde1G","_score":1,"_source":{"type":"Feature","geometry":{"type":"Point","coordinates":[4.702904,52.017626]},"properties":{"name":"Gouda","UICIBNR":8400258,"abkuerzung":"","countryCode":"NL","sncf_id":"NLAAM","benerail_id":"NLGDA"}}}
{"_index":"bahnhoefenl","_type":"bahnhofnl","_id":"AWKk6m5DhtuDxSpyde1P","_score":1,"_source":{"type":"Feature","geometry":{"type":"Point","coordinates":[4.636465,52.38711]},"properties":{"name":"Haarlem","UICIBNR":8400285,"abkuerzung":"","countryCode":"NL","sncf_id":"NLGRZ","benerail_id":"NLHLM"}}}
{"_index":"bahnhoefenl","_type":"bahnhofnl","_id":"AWKk6m5DhtuDxSpyde1R","_score":1,"_source":{"type":"Feature","geometry":{"type":"Point","coordinates":[4.74723,52.385914]},"properties":{"name":"Halfweg-Zwanenburg","UICIBNR":8400400,"abkuerzung":"","countryCode":"NL","sncf_id":"","benerail_id":"NLHWZ"}}}
{"_index":"bahnhoefenl","_type":"bahnhofnl","_id":"AWKk6m5DhtuDxSpyde1V","_score":1,"_source":{"type":"Feature","geometry":{"type":"Point","coordinates":[4.8358335495,51.8305549622]},"properties":{"name":"Hardinxveld-Giessendam","UICIBNR":8400295,"abkuerzung":"","countryCode":"NL","sncf_id":"","benerail_id":"NLHDV"}}}
{"_index":"bahnhoefenl","_type":"bahnhofnl","_id":"AWKk6m5DhtuDxSpyde1a","_score":1,"_source":{"type":"Feature","geometry":{"type":"Point","coordinates":[4.606683,52.359423]},"properties":{"name":"Heemstede-Aerdenhout","UICIBNR":8400302,"abkuerzung":"","countryCode":"NL","sncf_id":"","benerail_id":"NLHSA"}}}
{"_index":"bahnhoefenl","_type":"bahnhofnl","_id":"AWKk6m5DhtuDxSpyde1e","_score":1,"_source":{"type":"Feature","geometry":{"type":"Point","coordinates":[5.975839,50.890694]},"properties":{"name":"Heerlen","UICIBNR":8400307,"abkuerzung":"","countryCode":"NL","sncf_id":"NLABQ","benerail_id":"NLHLN"}}}
{"_index":"bahnhoefenl","_type":"bahnhofnl","_id":"AWKk6m5DhtuDxSpyde1f","_score":1,"_source":{"type":"Feature","geometry":{"type":"Point","coordinates":[5.994573,50.890316]},"properties":{"name":"Heerlen de Kissel","UICIBNR":8400409,"abkuerzung":"","countryCode":"NL","sncf_id":"","benerail_id":"NLHLK"}}}
{"_index":"bahnhoefenl","_type":"bahnhofnl","_id":"AWKk6m5DhtuDxSpyde1q","_score":1,"_source":{"type":"Feature","geometry":{"type":"Point","coordinates":[6.773611,52.261667]},"properties":{"name":"Hengelo Gezondheidspark","UICIBNR":8400433,"abkuerzung":"","countryCode":"NL","sncf_id":"","benerail_id":"NLHGP"}}}
{"_index":"bahnhoefenl","_type":"bahnhofnl","_id":"AWKk6m5EhtuDxSpyde1s","_score":1,"_source":{"type":"Feature","geometry":{"type":"Point","coordinates":[4.566151,52.303097]},"properties":{"name":"Hillegom","UICIBNR":8400329,"abkuerzung":"","countryCode":"NL","sncf_id":"","benerail_id":"NLHGM"}}}
{"_index":"bahnhoefenl","_type":"bahnhofnl","_id":"AWKk6m5EhtuDxSpyde1u","_score":1,"_source":{"type":"Feature","geometry":{"type":"Point","coordinates":[5.173966,52.237826]},"properties":{"name":"Hilversum Noord","UICIBNR":8400324,"abkuerzung":"","countryCode":"NL","sncf_id":"","benerail_id":"NLHVN"}}}
{"_index":"bahnhoefenl","_type":"bahnhofnl","_id":"AWKk6m5EhtuDxSpyde13","_score":1,"_source":{"type":"Feature","geometry":{"type":"Point","coordinates":[4.702374,52.295006]},"properties":{"name":"Hoofddorp","UICIBNR":8400332,"abkuerzung":"","countryCode":"NL","sncf_id":"NLAAT","benerail_id":"NLHDP"}}}
{"_index":"bahnhoefenl","_type":"bahnhofnl","_id":"AWKk6m5EhtuDxSpyde16","_score":1,"_source":{"type":"Feature","geometry":{"type":"Point","coordinates":[5.183135,52.690442]},"properties":{"name":"Hoogkarspel","UICIBNR":8400334,"abkuerzung":"","countryCode":"NL","sncf_id":"","benerail_id":"NLHKS"}}}
{"_index":"bahnhoefenl","_type":"bahnhofnl","_id":"AWKk6m5EhtuDxSpyde2A","_score":1,"_source":{"type":"Feature","geometry":{"type":"Point","coordinates":[5.79722213745,50.8733329773]},"properties":{"name":"Houthem-St Gerlach","UICIBNR":8400341,"abkuerzung":"","countryCode":"NL","sncf_id":"","benerail_id":"NLHTS"}}}
{"_index":"bahnhoefenl","_type":"bahnhofnl","_id":"AWKk6m5EhtuDxSpyde2I","_score":1,"_source":{"type":"Feature","geometry":{"type":"Point","coordinates":[5.5833465,51.9313869]},"properties":{"name":"Kesteren","UICIBNR":8400359,"abkuerzung":"","countryCode":"NL","sncf_id":"","benerail_id":"NLKTR"}}}
{"_index":"bahnhoefenl","_type":"bahnhofnl","_id":"AWKk6m5EhtuDxSpyde2J","_score":1,"_source":{"type":"Feature","geometry":{"type":"Point","coordinates":[6.08361101151,52.1780548096]},"properties":{"name":"Klarenbeek","UICIBNR":8400361,"abkuerzung":"","countryCode":"NL","sncf_id":"","benerail_id":"NLKRB"}}}
{"_index":"bahnhoefenl","_type":"bahnhofnl","_id":"AWKk6m5EhtuDxSpyde2N","_score":1,"_source":{"type":"Feature","geometry":{"type":"Point","coordinates":[4.116951,51.433399]},"properties":{"name":"Krabbendijke","UICIBNR":8400367,"abkuerzung":"","countryCode":"NL","sncf_id":"","benerail_id":"NLKBD"}}}
{"_index":"bahnhoefenl","_type":"bahnhofnl","_id":"AWKk6m5EhtuDxSpyde2O","_score":1,"_source":{"type":"Feature","geometry":{"type":"Point","coordinates":[4.755347,52.494873]},"properties":{"name":"Krommenie-Assendelft","UICIBNR":8400368,"abkuerzung":"","countryCode":"NL","sncf_id":"","benerail_id":"NLKMA"}}}
{"_index":"bahnhoefenl","_type":"bahnhofnl","_id":"AWKk6m5EhtuDxSpyde2P","_score":1,"_source":{"type":"Feature","geometry":{"type":"Point","coordinates":[6.7220882,53.1617362]},"properties":{"name":"Kropswolde","UICIBNR":8400369,"abkuerzung":"","countryCode":"NL","sncf_id":"","benerail_id":"NLKWD"}}}
{"_index":"bahnhoefenl","_type":"bahnhofnl","_id":"AWKk6m5FhtuDxSpyde2g","_score":1,"_source":{"type":"Feature","geometry":{"type":"Point","coordinates":[5.033222,52.135745]},"properties":{"name":"Maarssen","UICIBNR":8400419,"abkuerzung":"","countryCode":"NL","sncf_id":"","benerail_id":"NLMAS"}}}
{"_index":"bahnhoefenl","_type":"bahnhofnl","_id":"AWKk6m5FhtuDxSpyde2h","_score":1,"_source":{"type":"Feature","geometry":{"type":"Point","coordinates":[4.253623,51.916516]},"properties":{"name":"Maassluis","UICIBNR":8400422,"abkuerzung":"","countryCode":"NL","sncf_id":"","benerail_id":"NLMSS"}}}
{"_index":"bahnhoefenl","_type":"bahnhofnl","_id":"AWKk6m5FhtuDxSpyde2n","_score":1,"_source":{"type":"Feature","geometry":{"type":"Point","coordinates":[6.574989,52.509273]},"properties":{"name":"Marienberg","UICIBNR":8400428,"abkuerzung":"","countryCode":"NL","sncf_id":"","benerail_id":"NLMRB"}}}
{"_index":"bahnhoefenl","_type":"bahnhofnl","_id":"AWKk6m5FhtuDxSpyde2o","_score":1,"_source":{"type":"Feature","geometry":{"type":"Point","coordinates":[6.7402989,53.1607232]},"properties":{"name":"Martenshoek","UICIBNR":8400430,"abkuerzung":"","countryCode":"NL","sncf_id":"","benerail_id":"NLMTH"}}}
{"_index":"bahnhoefenl","_type":"bahnhofnl","_id":"AWKk6m5FhtuDxSpyde2q","_score":1,"_source":{"type":"Feature","geometry":{"type":"Point","coordinates":[6.197882,52.691907]},"properties":{"name":"Meppel","UICIBNR":8400435,"abkuerzung":"","countryCode":"NL","sncf_id":"NLABV","benerail_id":"NLMPL"}}}
{"_index":"bahnhoefenl","_type":"bahnhofnl","_id":"AWKk6m5GhtuDxSpyde3S","_score":1,"_source":{"type":"Feature","geometry":{"type":"Point","coordinates":[6.7606167,53.4192128]},"properties":{"name":"Roodeschool","UICIBNR":8400525,"abkuerzung":"","countryCode":"NL","sncf_id":"","benerail_id":"NLRDS"}}}
{"_index":"bahnhoefenl","_type":"bahnhofnl","_id":"AWKk6m5GhtuDxSpyde3U","_score":1,"_source":{"type":"Feature","geometry":{"type":"Point","coordinates":[5.369373,51.715067]},"properties":{"name":"Rosmalen","UICIBNR":8400524,"abkuerzung":"","countryCode":"NL","sncf_id":"","benerail_id":"NLRML"}}}
{"_index":"bahnhoefenl","_type":"bahnhofnl","_id":"AWKk6m5GhtuDxSpyde3Z","_score":1,"_source":{"type":"Feature","geometry":{"type":"Point","coordinates":[4.481581,51.942279]},"properties":{"name":"Rotterdam Noord","UICIBNR":8400531,"abkuerzung":"","countryCode":"NL","sncf_id":"","benerail_id":"NLRNO"}}}
{"_index":"bahnhoefenl","_type":"bahnhofnl","_id":"AWKk6m5GhtuDxSpyde3c","_score":1,"_source":{"type":"Feature","geometry":{"type":"Point","coordinates":[6.4492656,52.0810888]},"properties":{"name":"Ruurlo","UICIBNR":8400537,"abkuerzung":"","countryCode":"NL","sncf_id":"","benerail_id":"NLRLO"}}}
{"_index":"bahnhoefenl","_type":"bahnhofnl","_id":"AWKk6m5GhtuDxSpyde3g","_score":1,"_source":{"type":"Feature","geometry":{"type":"Point","coordinates":[4.515731,52.214751]},"properties":{"name":"Sassenheim","UICIBNR":8400603,"abkuerzung":"","countryCode":"NL","sncf_id":"","benerail_id":"NLSSH"}}}
{"_index":"bahnhoefenl","_type":"bahnhofnl","_id":"AWKk6m5GhtuDxSpyde3l","_score":1,"_source":{"type":"Feature","geometry":{"type":"Point","coordinates":[4.382484,51.922431]},"properties":{"name":"Schiedam Nieuwland","UICIBNR":8400563,"abkuerzung":"","countryCode":"NL","sncf_id":"","benerail_id":"NLSDN"}}}
{"_index":"bahnhoefenl","_type":"bahnhofnl","_id":"AWKk6m5GhtuDxSpyde3p","_score":1,"_source":{"type":"Feature","geometry":{"type":"Point","coordinates":[5.97973823547,50.8314750744]},"properties":{"name":"Simpelveld","UICIBNR":8400559,"abkuerzung":"","countryCode":"NL","sncf_id":"","benerail_id":""}}}
{"_index":"bahnhoefenl","_type":"bahnhofnl","_id":"AWKk6m5GhtuDxSpyde3r","_score":1,"_source":{"type":"Feature","geometry":{"type":"Point","coordinates":[4.7783331871,51.8297233582]},"properties":{"name":"Sliedrecht","UICIBNR":8400565,"abkuerzung":"","countryCode":"NL","sncf_id":"","benerail_id":"NLSDT"}}}
{"_index":"bahnhoefenl","_type":"bahnhofnl","_id":"AWKk6m5GhtuDxSpyde31","_score":1,"_source":{"type":"Feature","geometry":{"type":"Point","coordinates":[6.6875551,53.3262092]},"properties":{"name":"Stedum","UICIBNR":8400576,"abkuerzung":"","countryCode":"NL","sncf_id":"","benerail_id":"NLSDM"}}}
{"_index":"bahnhoefenl","_type":"bahnhofnl","_id":"AWKk6m5GhtuDxSpyde32","_score":1,"_source":{"type":"Feature","geometry":{"type":"Point","coordinates":[6.116395,52.791157]},"properties":{"name":"Steenwijk","UICIBNR":8400578,"abkuerzung":"","countryCode":"NL","sncf_id":"","benerail_id":"NLSWK"}}}
{"_index":"bahnhoefenl","_type":"bahnhofnl","_id":"AWKk6m5GhtuDxSpyde33","_score":1,"_source":{"type":"Feature","geometry":{"type":"Point","coordinates":[5.862827,51.06077]},"properties":{"name":"Susteren","UICIBNR":8400582,"abkuerzung":"","countryCode":"NL","sncf_id":"","benerail_id":"NLSTR"}}}
{"_index":"bahnhoefenl","_type":"bahnhofnl","_id":"AWKk6m5GhtuDxSpyde35","_score":1,"_source":{"type":"Feature","geometry":{"type":"Point","coordinates":[6.14253,51.33894]},"properties":{"name":"Tegelen","UICIBNR":8400591,"abkuerzung":"","countryCode":"NL","sncf_id":"","benerail_id":"NLTGL"}}}
{"_index":"bahnhoefenl","_type":"bahnhofnl","_id":"AWKk6m5HhtuDxSpyde3-","_score":1,"_source":{"type":"Feature","geometry":{"type":"Point","coordinates":[4.994325,51.573604]},"properties":{"name":"Tilburg Reeshof","UICIBNR":8400598,"abkuerzung":"","countryCode":"NL","sncf_id":"","benerail_id":"NLTRH"}}}
{"_index":"bahnhoefenl","_type":"bahnhofnl","_id":"AWKk6m5HhtuDxSpyde3_","_score":1,"_source":{"type":"Feature","geometry":{"type":"Point","coordinates":[5.051389,51.565064]},"properties":{"name":"Tilburg Universiteit","UICIBNR":8400594,"abkuerzung":"","countryCode":"NL","sncf_id":"","benerail_id":"NLTBW"}}}
{"_index":"bahnhoefenl","_type":"bahnhofnl","_id":"AWKk6m5HhtuDxSpyde4D","_score":1,"_source":{"type":"Feature","geometry":{"type":"Point","coordinates":[6.7202975,53.4145845]},"properties":{"name":"Uithuizermeeden","UICIBNR":8400618,"abkuerzung":"","countryCode":"NL","sncf_id":"","benerail_id":"NLUHM"}}}
{"_index":"bahnhoefenl","_type":"bahnhofnl","_id":"AWKk6m5HhtuDxSpyde4E","_score":1,"_source":{"type":"Feature","geometry":{"type":"Point","coordinates":[6.6093776,53.4014742]},"properties":{"name":"Usquert","UICIBNR":8400619,"abkuerzung":"","countryCode":"NL","sncf_id":"","benerail_id":"NLUQT"}}}
{"_index":"bahnhoefenl","_type":"bahnhofnl","_id":"AWKk6m5HhtuDxSpyde4K","_score":1,"_source":{"type":"Feature","geometry":{"type":"Point","coordinates":[5.04106,52.100588]},"properties":{"name":"Utrecht Terwijde","UICIBNR":8400614,"abkuerzung":"","countryCode":"NL","sncf_id":"","benerail_id":"NLUTT"}}}
{"_index":"bahnhoefenl","_type":"bahnhofnl","_id":"AWKk6m5HhtuDxSpyde4Q","_score":1,"_source":{"type":"Feature","geometry":{"type":"Point","coordinates":[5.531395,52.028189]},"properties":{"name":"Veenendaal West","UICIBNR":8400628,"abkuerzung":"","countryCode":"NL","sncf_id":"","benerail_id":"NLVNW"}}}
{"_index":"bahnhoefenl","_type":"bahnhofnl","_id":"AWKk6m5HhtuDxSpyde4U","_score":1,"_source":{"type":"Feature","geometry":{"type":"Point","coordinates":[6.17184,51.364407]},"properties":{"name":"Venlo","UICIBNR":8484644,"abkuerzung":"","countryCode":"NL","sncf_id":"NLABE","benerail_id":"NLVLO"}}}
{"_index":"bahnhoefenl","_type":"bahnhofnl","_id":"AWKk6m5HhtuDxSpyde4V","_score":1,"_source":{"type":"Feature","geometry":{"type":"Point","coordinates":[6.01417779922,51.526568099]},"properties":{"name":"Venray","UICIBNR":8400646,"abkuerzung":"","countryCode":"NL","sncf_id":"","benerail_id":"NLVRY"}}}
{"_index":"bahnhoefenl","_type":"bahnhofnl","_id":"AWKk6m5HhtuDxSpyde4b","_score":1,"_source":{"type":"Feature","geometry":{"type":"Point","coordinates":[3.595541,51.444411]},"properties":{"name":"Vlissingen","UICIBNR":8400652,"abkuerzung":"","countryCode":"NL","sncf_id":"NLABF","benerail_id":"NLVSG"}}}
{"_index":"bahnhoefenl","_type":"bahnhofnl","_id":"AWKk6m5HhtuDxSpyde4c","_score":1,"_source":{"type":"Feature","geometry":{"type":"Point","coordinates":[3.59493,51.464439]},"properties":{"name":"Vlissingen Souburg","UICIBNR":8400653,"abkuerzung":"","countryCode":"NL","sncf_id":"","benerail_id":"NLVSS"}}}
{"_index":"bahnhoefenl","_type":"bahnhofnl","_id":"AWKk6m5HhtuDxSpyde4g","_score":1,"_source":{"type":"Feature","geometry":{"type":"Point","coordinates":[4.43685,52.128293]},"properties":{"name":"Voorschoten","UICIBNR":8400659,"abkuerzung":"","countryCode":"NL","sncf_id":"","benerail_id":"NLVST"}}}
{"_index":"bahnhoefenl","_type":"bahnhofnl","_id":"AWKk6m5HhtuDxSpyde4k","_score":1,"_source":{"type":"Feature","geometry":{"type":"Point","coordinates":[6.5696679,52.4571921]},"properties":{"name":"Vroomshoop","UICIBNR":8400666,"abkuerzung":"","countryCode":"NL","sncf_id":"","benerail_id":"NLVHP"}}}
{"_index":"bahnhoefenl","_type":"bahnhofnl","_id":"AWKk6m5HhtuDxSpyde4m","_score":1,"_source":{"type":"Feature","geometry":{"type":"Point","coordinates":[4.649832,52.044252]},"properties":{"name":"Waddinxveen","UICIBNR":8400675,"abkuerzung":"","countryCode":"NL","sncf_id":"","benerail_id":"NLWDV"}}}
{"_index":"bahnhoefenl","_type":"bahnhofnl","_id":"AWKk6m5HhtuDxSpyde4q","_score":1,"_source":{"type":"Feature","geometry":{"type":"Point","coordinates":[5.038525,52.31285]},"properties":{"name":"Weesp","UICIBNR":8400685,"abkuerzung":"","countryCode":"NL","sncf_id":"NLABH","benerail_id":"NLWEP"}}}
{"_index":"bahnhoefenl","_type":"bahnhofnl","_id":"AWKk6m5HhtuDxSpyde4u","_score":1,"_source":{"type":"Feature","geometry":{"type":"Point","coordinates":[6.591933,52.361437]},"properties":{"name":"Wierden","UICIBNR":8400691,"abkuerzung":"","countryCode":"NL","sncf_id":"","benerail_id":"NLWID"}}}
{"_index":"bahnhoefenl","_type":"bahnhofnl","_id":"AWKk6m5IhtuDxSpyde4v","_score":1,"_source":{"type":"Feature","geometry":{"type":"Point","coordinates":[5.730344,51.811486]},"properties":{"name":"Wijchen","UICIBNR":8400710,"abkuerzung":"","countryCode":"NL","sncf_id":"","benerail_id":"NLWCN"}}}
{"_index":"bahnhoefenl","_type":"bahnhofnl","_id":"AWKk6m5IhtuDxSpyde48","_score":1,"_source":{"type":"Feature","geometry":{"type":"Point","coordinates":[4.805048,52.469208]},"properties":{"name":"Zaandijk Zaanse Schans","UICIBNR":8400364,"abkuerzung":"","countryCode":"NL","sncf_id":"","benerail_id":"NLKZD"}}}
{"_index":"bahnhoefenl","_type":"bahnhofnl","_id":"AWKk6m5IhtuDxSpyde49","_score":1,"_source":{"type":"Feature","geometry":{"type":"Point","coordinates":[5.263274,51.807827]},"properties":{"name":"Zaltbommel","UICIBNR":8400732,"abkuerzung":"","countryCode":"NL","sncf_id":"","benerail_id":"NLZBM"}}}
{"_index":"bahnhoefenl","_type":"bahnhofnl","_id":"AWKk6m5IhtuDxSpyde5C","_score":1,"_source":{"type":"Feature","geometry":{"type":"Point","coordinates":[4.494408,52.045655]},"properties":{"name":"Zoetermeer","UICIBNR":8400741,"abkuerzung":"","countryCode":"NL","sncf_id":"","benerail_id":"NLZTM"}}}
{"_index":"bahnhoefenl","_type":"bahnhofnl","_id":"AWKk6m5AhtuDxSpydeyy","_score":1,"_source":{"type":"Feature","geometry":{"type":"Point","coordinates":[5.293801,51.690671]},"properties":{"name":"’s-Hertogenbosch","UICIBNR":8400319,"abkuerzung":"","countryCode":"NL","sncf_id":"NLSHE","benerail_id":"NLHTG"}}}
{"_index":"bahnhoefenl","_type":"bahnhofnl","_id":"AWKk6m5AhtuDxSpydey3","_score":1,"_source":{"type":"Feature","geometry":{"type":"Point","coordinates":[5.843365,53.047134]},"properties":{"name":"Akkrum","UICIBNR":8400049,"abkuerzung":"","countryCode":"NL","sncf_id":"","benerail_id":"NLAKM"}}}
{"_index":"bahnhoefenl","_type":"bahnhofnl","_id":"AWKk6m5AhtuDxSpydey7","_score":1,"_source":{"type":"Feature","geometry":{"type":"Point","coordinates":[6.6664,52.342218]},"properties":{"name":"Almelo de Riet","UICIBNR":8400520,"abkuerzung":"","countryCode":"NL","sncf_id":"","benerail_id":"NLADR"}}}
{"_index":"bahnhoefenl","_type":"bahnhofnl","_id":"AWKk6m5AhtuDxSpydey_","_score":1,"_source":{"type":"Feature","geometry":{"type":"Point","coordinates":[5.30021,52.403219]},"properties":{"name":"Almere Oostvaarders","UICIBNR":8400226,"abkuerzung":"","countryCode":"NL","sncf_id":"","benerail_id":"NLAMO"}}}
{"_index":"bahnhoefenl","_type":"bahnhofnl","_id":"AWKk6m5AhtuDxSpydezI","_score":1,"_source":{"type":"Feature","geometry":{"type":"Point","coordinates":[4.960031,52.298108]},"properties":{"name":"Amsterdam Holendrecht","UICIBNR":8400231,"abkuerzung":"","countryCode":"NL","sncf_id":"","benerail_id":"NLAHO"}}}
{"_index":"bahnhoefenl","_type":"bahnhofnl","_id":"AWKk6m5AhtuDxSpydezK","_score":1,"_source":{"type":"Feature","geometry":{"type":"Point","coordinates":[4.93111133575,52.3605537415]},"properties":{"name":"Amsterdam Muiderpoort","UICIBNR":8400060,"abkuerzung":"","countryCode":"NL","sncf_id":"","benerail_id":"NLAMP"}}}
{"_index":"bahnhoefenl","_type":"bahnhofnl","_id":"AWKk6m5AhtuDxSpydezR","_score":1,"_source":{"type":"Feature","geometry":{"type":"Point","coordinates":[5.96748,52.20942]},"properties":{"name":"Apeldoorn","UICIBNR":8400066,"abkuerzung":"","countryCode":"NL","sncf_id":"NLAAD","benerail_id":"NLAPD"}}}
{"_index":"bahnhoefenl","_type":"bahnhofnl","_id":"AWKk6m5AhtuDxSpydezS","_score":1,"_source":{"type":"Feature","geometry":{"type":"Point","coordinates":[6.00055551529,52.2052764893]},"properties":{"name":"Apeldoorn de Maten","UICIBNR":8400233,"abkuerzung":"","countryCode":"NL","sncf_id":"","benerail_id":"NLAPM"}}}
{"_index":"bahnhoefenl","_type":"bahnhofnl","_id":"AWKk6m5AhtuDxSpydezT","_score":1,"_source":{"type":"Feature","geometry":{"type":"Point","coordinates":[6.006061,52.215713]},"properties":{"name":"Apeldoorn Osseveld","UICIBNR":8400229,"abkuerzung":"","countryCode":"NL","sncf_id":"","benerail_id":"NLAPO"}}}
{"_index":"bahnhoefenl","_type":"bahnhofnl","_id":"AWKk6m5BhtuDxSpydezZ","_score":1,"_source":{"type":"Feature","geometry":{"type":"Point","coordinates":[5.919837,51.985175]},"properties":{"name":"Arnhem Velperpoort","UICIBNR":8400072,"abkuerzung":"","countryCode":"NL","sncf_id":"","benerail_id":"NLAHV"}}}
{"_index":"bahnhoefenl","_type":"bahnhofnl","_id":"AWKk6m5BhtuDxSpydezc","_score":1,"_source":{"type":"Feature","geometry":{"type":"Point","coordinates":[5.281252,52.208117]},"properties":{"name":"Baarn","UICIBNR":8400086,"abkuerzung":"","countryCode":"NL","sncf_id":"NLAAG","benerail_id":"NLBAN"}}}
{"_index":"bahnhoefenl","_type":"bahnhofnl","_id":"AWKk6m5BhtuDxSpydezm","_score":1,"_source":{"type":"Feature","geometry":{"type":"Point","coordinates":[6.521278,52.855106]},"properties":{"name":"Beilen","UICIBNR":8400100,"abkuerzung":"","countryCode":"NL","sncf_id":"","benerail_id":"NLBLN"}}}
{"_index":"bahnhoefenl","_type":"bahnhofnl","_id":"AWKk6m5BhtuDxSpydezo","_score":1,"_source":{"type":"Feature","geometry":{"type":"Point","coordinates":[5.388988,51.509799]},"properties":{"name":"Best","UICIBNR":8400112,"abkuerzung":"","countryCode":"NL","sncf_id":"","benerail_id":"NLBET"}}}
