{"_index":"bahnhoefeno","_type":"bahnhofno","_id":"AWQRUUb7htuDxSpydnTS","_score":1,"_source":{"type":"Feature","geometry":{"type":"Point","coordinates":[11.222439,60.777012]},"properties":{"name":"Ilseng","UICIBNR":7600198,"abkuerzung":"NOAER","countryCode":"NO"}}}
{"_index":"bahnhoefeno","_type":"bahnhofno","_id":"AWQRUUb7htuDxSpydnTU","_score":1,"_source":{"type":"Feature","geometry":{"type":"Point","coordinates":[9.101002,59.299159]},"properties":{"name":"Lunde","UICIBNR":7600319,"abkuerzung":"NOAGA","countryCode":"NO"}}}
{"_index":"bahnhoefeno","_type":"bahnhofno","_id":"AWQRUUb7htuDxSpydnTW","_score":1,"_source":{"type":"Feature","geometry":{"type":"Point","coordinates":[10.794993,59.663042]},"properties":{"name":"Ås","UICIBNR":7600165,"abkuerzung":"NOAAC","countryCode":"NO"}}}
{"_index":"bahnhoefeno","_type":"bahnhofno","_id":"AWQRUUb7htuDxSpydnTr","_score":1,"_source":{"type":"Feature","geometry":{"type":"Point","coordinates":[11.325095,61.252047]},"properties":{"name":"Steinvik","UICIBNR":7600202,"abkuerzung":"NOAEW","countryCode":"NO"}}}
{"_index":"bahnhoefeno","_type":"bahnhofno","_id":"AWQRUUb7htuDxSpydnTu","_score":1,"_source":{"type":"Feature","geometry":{"type":"Point","coordinates":[9.257388,59.557086]},"properties":{"name":"Notodden","UICIBNR":7600053,"abkuerzung":"NONOT","countryCode":"NO"}}}
{"_index":"bahnhoefeno","_type":"bahnhofno","_id":"AWQRUUb7htuDxSpydnTv","_score":1,"_source":{"type":"Feature","geometry":{"type":"Point","coordinates":[11.494866,64.011987]},"properties":{"name":"Steinkjer","UICIBNR":7600040,"abkuerzung":"NOADQ","countryCode":"NO"}}}
{"_index":"bahnhoefeno","_type":"bahnhofno","_id":"AWQRUUb7htuDxSpydnT2","_score":1,"_source":{"type":"Feature","geometry":{"type":"Point","coordinates":[8.855453,58.760839]},"properties":{"name":"Vegårshei","UICIBNR":7600328,"abkuerzung":"NOAGF","countryCode":"NO"}}}
{"_index":"bahnhoefeno","_type":"bahnhofno","_id":"AWQRUUb7htuDxSpydnT5","_score":1,"_source":{"type":"Feature","geometry":{"type":"Point","coordinates":[11.195237,60.717773]},"properties":{"name":"Stange","UICIBNR":7600176,"abkuerzung":"NOABT","countryCode":"NO"}}}
{"_index":"bahnhoefeno","_type":"bahnhofno","_id":"AWQRUUb7htuDxSpydnT9","_score":1,"_source":{"type":"Feature","geometry":{"type":"Point","coordinates":[7.123097,60.839622]},"properties":{"name":"Håreina","UICIBNR":7600370,"abkuerzung":"NOAJD","countryCode":"NO"}}}
{"_index":"bahnhoefeno","_type":"bahnhofno","_id":"AWQRUUb7htuDxSpydnT_","_score":1,"_source":{"type":"Feature","geometry":{"type":"Point","coordinates":[5.624793,60.429363]},"properties":{"name":"Trengereid","UICIBNR":7600368,"abkuerzung":"NOAIY","countryCode":"NO"}}}
{"_index":"bahnhoefeno","_type":"bahnhofno","_id":"AWQRUUb7htuDxSpydnUC","_score":1,"_source":{"type":"Feature","geometry":{"type":"Point","coordinates":[7.691089,62.567205]},"properties":{"name":"Åndalsnes","UICIBNR":7600006,"abkuerzung":"NOACL","countryCode":"NO"}}}
{"_index":"bahnhoefeno","_type":"bahnhofno","_id":"AWQRUUb7htuDxSpydnUD","_score":1,"_source":{"type":"Feature","geometry":{"type":"Point","coordinates":[10.464064,63.436956]},"properties":{"name":"Leangen","UICIBNR":7600247,"abkuerzung":"NOACV","countryCode":"NO"}}}
{"_index":"bahnhoefeno","_type":"bahnhofno","_id":"AWQRUUb7htuDxSpydnUF","_score":1,"_source":{"type":"Feature","geometry":{"type":"Point","coordinates":[10.748635,59.603857]},"properties":{"name":"Vestby","UICIBNR":7600140,"abkuerzung":"NOAAD","countryCode":"NO"}}}
{"_index":"bahnhoefeno","_type":"bahnhofno","_id":"AWQRUUb7htuDxSpydnUH","_score":1,"_source":{"type":"Feature","geometry":{"type":"Point","coordinates":[9.023012,58.870184]},"properties":{"name":"Gjerstad","UICIBNR":7600327,"abkuerzung":"NOAGE","countryCode":"NO"}}}
{"_index":"bahnhoefeno","_type":"bahnhofno","_id":"AWQRUUb7htuDxSpydnUI","_score":1,"_source":{"type":"Feature","geometry":{"type":"Point","coordinates":[9.659134,59.139222]},"properties":{"name":"Porsgrunn","UICIBNR":7600072,"abkuerzung":"NOAHX","countryCode":"NO"}}}
{"_index":"bahnhoefeno","_type":"bahnhofno","_id":"AWQRUUb7htuDxSpydnUK","_score":1,"_source":{"type":"Feature","geometry":{"type":"Point","coordinates":[6.840386,60.694015]},"properties":{"name":"Mjølfjell","UICIBNR":7600359,"abkuerzung":"NOAIR","countryCode":"NO"}}}
{"_index":"bahnhoefeno","_type":"bahnhofno","_id":"AWQRUUb7htuDxSpydnUP","_score":1,"_source":{"type":"Feature","geometry":{"type":"Point","coordinates":[11.324214,59.554533]},"properties":{"name":"Mysen","UICIBNR":7600152,"abkuerzung":"NOAAN","countryCode":"NO"}}}
{"_index":"bahnhoefeno","_type":"bahnhofno","_id":"AWQRUUb8htuDxSpydnUU","_score":1,"_source":{"type":"Feature","geometry":{"type":"Point","coordinates":[10.434094,59.833037]},"properties":{"name":"Asker","UICIBNR":7600119,"abkuerzung":"NOAFS","countryCode":"NO"}}}
{"_index":"bahnhoefeno","_type":"bahnhofno","_id":"AWQRUUb8htuDxSpydnUV","_score":1,"_source":{"type":"Feature","geometry":{"type":"Point","coordinates":[9.064048,59.096101]},"properties":{"name":"Drangedal","UICIBNR":7600326,"abkuerzung":"NOAGC","countryCode":"NO"}}}
{"_index":"bahnhoefeno","_type":"bahnhofno","_id":"AWQRUUb8htuDxSpydnUf","_score":1,"_source":{"type":"Feature","geometry":{"type":"Point","coordinates":[12.397347,64.243999]},"properties":{"name":"Snåsa","UICIBNR":7600262,"abkuerzung":"NOADS","countryCode":"NO"}}}
{"_index":"bahnhoefeno","_type":"bahnhofno","_id":"AWQRUUb8htuDxSpydnUj","_score":1,"_source":{"type":"Feature","geometry":{"type":"Point","coordinates":[8.769786,58.464825]},"properties":{"name":"Arendal","UICIBNR":7600075,"abkuerzung":"NOAHO","countryCode":"NO"}}}
{"_index":"bahnhoefeno","_type":"bahnhofno","_id":"AWQRUUb8htuDxSpydnUu","_score":1,"_source":{"type":"Feature","geometry":{"type":"Point","coordinates":[10.357622,63.351019]},"properties":{"name":"Heimdal","UICIBNR":7600113,"abkuerzung":"NOACU","countryCode":"NO"}}}
{"_index":"bahnhoefeno","_type":"bahnhofno","_id":"AWQRUUb8htuDxSpydnUz","_score":1,"_source":{"type":"Feature","geometry":{"type":"Point","coordinates":[9.623491,62.374467]},"properties":{"name":"Kongsvoll","UICIBNR":7600230,"abkuerzung":"NOACP","countryCode":"NO"}}}
{"_index":"bahnhoefeno","_type":"bahnhofno","_id":"AWQRUUb8htuDxSpydnU5","_score":1,"_source":{"type":"Feature","geometry":{"type":"Point","coordinates":[8.206881,60.534951]},"properties":{"name":"Geilo","UICIBNR":7600021,"abkuerzung":"NOAIK","countryCode":"NO"}}}
{"_index":"bahnhoefeno","_type":"bahnhofno","_id":"AWQRUUb8htuDxSpydnVB","_score":1,"_source":{"type":"Feature","geometry":{"type":"Point","coordinates":[5.73589,60.478408]},"properties":{"name":"Vaksdal","UICIBNR":7600124,"abkuerzung":"NOAIX","countryCode":"NO"}}}
{"_index":"bahnhoefeno","_type":"bahnhofno","_id":"AWQRUUb8htuDxSpydnVH","_score":1,"_source":{"type":"Feature","geometry":{"type":"Point","coordinates":[10.22416,59.135024]},"properties":{"name":"Sandefjord","UICIBNR":7600065,"abkuerzung":"NOAHU","countryCode":"NO"}}}
{"_index":"bahnhoefeno","_type":"bahnhofno","_id":"AWQRUUb8htuDxSpydnVQ","_score":1,"_source":{"type":"Feature","geometry":{"type":"Point","coordinates":[10.834051,61.73235]},"properties":{"name":"Atna","UICIBNR":7600207,"abkuerzung":"NOAFB","countryCode":"NO"}}}
{"_index":"bahnhoefeno","_type":"bahnhofno","_id":"AWQRUUb8htuDxSpydnVZ","_score":1,"_source":{"type":"Feature","geometry":{"type":"Point","coordinates":[10.011843,59.750777]},"properties":{"name":"Mjøndalen","UICIBNR":7600296,"abkuerzung":"NOAFU","countryCode":"NO"}}}
{"_index":"bahnhoefeno","_type":"bahnhofno","_id":"AWQRUUb8htuDxSpydnVc","_score":1,"_source":{"type":"Feature","geometry":{"type":"Point","coordinates":[7.367289,58.318759]},"properties":{"name":"Audnedal","UICIBNR":7600341,"abkuerzung":"NOAGS","countryCode":"NO"}}}
{"_index":"bahnhoefeno","_type":"bahnhofno","_id":"AWQRUUb8htuDxSpydnVd","_score":1,"_source":{"type":"Feature","geometry":{"type":"Point","coordinates":[6.661033,58.417865]},"properties":{"name":"Sira","UICIBNR":7600037,"abkuerzung":"NOAGY","countryCode":"NO"}}}
{"_index":"bahnhoefeno","_type":"bahnhofno","_id":"AWQRUUb8htuDxSpydnVe","_score":1,"_source":{"type":"Feature","geometry":{"type":"Point","coordinates":[7.011891,60.725225]},"properties":{"name":"Upsete","UICIBNR":7600358,"abkuerzung":"NOAIQ","countryCode":"NO"}}}
{"_index":"bahnhoefeno","_type":"bahnhofno","_id":"AWQRUUb8htuDxSpydnVk","_score":1,"_source":{"type":"Feature","geometry":{"type":"Point","coordinates":[7.968496,58.25365]},"properties":{"name":"Vennesla","UICIBNR":7600331,"abkuerzung":"NOAGN","countryCode":"NO"}}}
{"_index":"bahnhoefeno","_type":"bahnhofno","_id":"AWQRUUb8htuDxSpydnVt","_score":1,"_source":{"type":"Feature","geometry":{"type":"Point","coordinates":[9.323719,59.418032]},"properties":{"name":"Nordagutu","UICIBNR":7600052,"abkuerzung":"NOAFY","countryCode":"NO"}}}
{"_index":"bahnhoefeno","_type":"bahnhofno","_id":"AWQRUUb8htuDxSpydnVy","_score":1,"_source":{"type":"Feature","geometry":{"type":"Point","coordinates":[7.504689,60.601749]},"properties":{"name":"Finse","UICIBNR":7600018,"abkuerzung":"NOAIN","countryCode":"NO"}}}
{"_index":"bahnhoefeno","_type":"bahnhofno","_id":"AWQRUUb8htuDxSpydnV2","_score":1,"_source":{"type":"Feature","geometry":{"type":"Point","coordinates":[10.865477,59.347763]},"properties":{"name":"Råde","UICIBNR":7600143,"abkuerzung":"NOAAG","countryCode":"NO"}}}
{"_index":"bahnhoefeno","_type":"bahnhofno","_id":"AWQRUUb8htuDxSpydnV4","_score":1,"_source":{"type":"Feature","geometry":{"type":"Point","coordinates":[8.201236,62.258246]},"properties":{"name":"Bjorli","UICIBNR":7600197,"abkuerzung":"NOACK","countryCode":"NO"}}}
{"_index":"bahnhoefeno","_type":"bahnhofno","_id":"AWQRUUb8htuDxSpydnWF","_score":1,"_source":{"type":"Feature","geometry":{"type":"Point","coordinates":[7.211002,58.331811]},"properties":{"name":"Snartemo","UICIBNR":7600125,"abkuerzung":"NOAGT","countryCode":"NO"}}}
{"_index":"bahnhoefeno","_type":"bahnhofno","_id":"AWQRUUb8htuDxSpydnWH","_score":1,"_source":{"type":"Feature","geometry":{"type":"Point","coordinates":[9.603805,59.219325]},"properties":{"name":"Skien","UICIBNR":7600055,"abkuerzung":"NOAHZ","countryCode":"NO"}}}
{"_index":"bahnhoefeno","_type":"bahnhofno","_id":"AWQRUUb8htuDxSpydnWK","_score":1,"_source":{"type":"Feature","geometry":{"type":"Point","coordinates":[6.940499,60.703966]},"properties":{"name":"Ørneberget","UICIBNR":7600442,"abkuerzung":"NOAJF","countryCode":"NO"}}}
{"_index":"bahnhoefeno","_type":"bahnhofno","_id":"AWQUViUehtuDxSpydnbe","_score":1,"_source":{"type":"Feature","geometry":{"type":"Point","coordinates":[10.862781,60.085832]},"properties":{"name":"Åneby","UICIBNR":7600164,"abkuerzung":"NOAANEBY","countryCode":"NO"}}}
{"_index":"bahnhoefeno","_type":"bahnhofno","_id":"AWQUViUehtuDxSpydnbh","_score":1,"_source":{"type":"Feature","geometry":{"type":"Point","coordinates":[11.472222,63.77194]},"properties":{"name":"Bergsgrav","UICIBNR":7600424,"abkuerzung":"NOBERGSGRAV","countryCode":"NO"}}}
{"_index":"bahnhoefeno","_type":"bahnhofno","_id":"AWQUViUehtuDxSpydnbj","_score":1,"_source":{"type":"Feature","geometry":{"type":"Point","coordinates":[11.300834,60.004722]},"properties":{"name":"Blaker","UICIBNR":7600096,"abkuerzung":"NOBLAKER","countryCode":"NO"}}}
{"_index":"bahnhoefeno","_type":"bahnhofno","_id":"AWQUViUehtuDxSpydnbk","_score":1,"_source":{"type":"Feature","geometry":{"type":"Point","coordinates":[7.101946,60.771664]},"properties":{"name":"Blomheller","UICIBNR":7600455,"abkuerzung":"NOBLOMHELLER","countryCode":"NO"}}}
{"_index":"bahnhoefeno","_type":"bahnhofno","_id":"AWQUViUehtuDxSpydnbo","_score":1,"_source":{"type":"Feature","geometry":{"type":"Point","coordinates":[10.432782,59.82056]},"properties":{"name":"Bondivatn","UICIBNR":7600427,"abkuerzung":"NOBONDIVANN","countryCode":"NO"}}}
{"_index":"bahnhoefeno","_type":"bahnhofno","_id":"AWQUViUehtuDxSpydnbq","_score":1,"_source":{"type":"Feature","geometry":{"type":"Point","coordinates":[10.232781,59.743613]},"properties":{"name":"Brakerøya","UICIBNR":7600289,"abkuerzung":"NOBRAKEROEYA","countryCode":"NO"}}}
{"_index":"bahnhoefeno","_type":"bahnhofno","_id":"AWQUViUehtuDxSpydnbt","_score":1,"_source":{"type":"Feature","geometry":{"type":"Point","coordinates":[6.284718,60.63056]},"properties":{"name":"Bulken","UICIBNR":7600363,"abkuerzung":"NOBULKEN","countryCode":"NO"}}}
{"_index":"bahnhoefeno","_type":"bahnhofno","_id":"AWQUViUehtuDxSpydnbu","_score":1,"_source":{"type":"Feature","geometry":{"type":"Point","coordinates":[11.201665,60.24806]},"properties":{"name":"Dal","UICIBNR":7600085,"abkuerzung":"NODAL","countryCode":"NO"}}}
{"_index":"bahnhoefeno","_type":"bahnhofno","_id":"AWQUViUehtuDxSpydnbw","_score":1,"_source":{"type":"Feature","geometry":{"type":"Point","coordinates":[13.455836,66.071111]},"properties":{"name":"Drevvatn","UICIBNR":7600270,"abkuerzung":"NODREVVATN","countryCode":"NO"}}}
{"_index":"bahnhoefeno","_type":"bahnhofno","_id":"AWQUViUehtuDxSpydnb2","_score":1,"_source":{"type":"Feature","geometry":{"type":"Point","coordinates":[11.162499,59.926948]},"properties":{"name":"Fetsund","UICIBNR":7600095,"abkuerzung":"NOFETSUND","countryCode":"NO"}}}
{"_index":"bahnhoefeno","_type":"bahnhofno","_id":"AWQUViUehtuDxSpydnb3","_score":1,"_source":{"type":"Feature","geometry":{"type":"Point","coordinates":[10.981663,59.940836]},"properties":{"name":"Fjellhamar","UICIBNR":7600077,"abkuerzung":"NOFJELLHAMAR","countryCode":"NO"}}}
{"_index":"bahnhoefeno","_type":"bahnhofno","_id":"AWQUViUehtuDxSpydnb6","_score":1,"_source":{"type":"Feature","geometry":{"type":"Point","coordinates":[5.740278,58.900829]},"properties":{"name":"Gausel","UICIBNR":7602228,"abkuerzung":"NOGAUSEL","countryCode":"NO"}}}
{"_index":"bahnhoefeno","_type":"bahnhofno","_id":"AWQUViUehtuDxSpydnb7","_score":1,"_source":{"type":"Feature","geometry":{"type":"Point","coordinates":[6.463891,60.639442]},"properties":{"name":"Gjerdåker","UICIBNR":7600449,"abkuerzung":"NOGJERDAAKER","countryCode":"NO"}}}
{"_index":"bahnhoefeno","_type":"bahnhofno","_id":"AWQUViUfhtuDxSpydncA","_score":1,"_source":{"type":"Feature","geometry":{"type":"Point","coordinates":[11.373611,60.053893]},"properties":{"name":"Haga","UICIBNR":7600098,"abkuerzung":"NOHAGA","countryCode":"NO"}}}
{"_index":"bahnhoefeno","_type":"bahnhofno","_id":"AWQUViUfhtuDxSpydncC","_score":1,"_source":{"type":"Feature","geometry":{"type":"Point","coordinates":[11.195274,60.184722]},"properties":{"name":"Hauerseter","UICIBNR":7600084,"abkuerzung":"NOHAUERSETER","countryCode":"NO"}}}
{"_index":"bahnhoefeno","_type":"bahnhofno","_id":"AWQUViUfhtuDxSpydncY","_score":1,"_source":{"type":"Feature","geometry":{"type":"Point","coordinates":[10.890836,59.68361]},"properties":{"name":"Kråkstad","UICIBNR":7600144,"abkuerzung":"NOKRAAKSTAD","countryCode":"NO"}}}
{"_index":"bahnhoefeno","_type":"bahnhofno","_id":"AWQUViUfhtuDxSpydncs","_score":1,"_source":{"type":"Feature","geometry":{"type":"Point","coordinates":[14.555837,67.283612]},"properties":{"name":"Mørkved","UICIBNR":7600425,"abkuerzung":"NOMOERKVED","countryCode":"NO"}}}
{"_index":"bahnhoefeno","_type":"bahnhofno","_id":"AWQUViUfhtuDxSpydncu","_score":1,"_source":{"type":"Feature","geometry":{"type":"Point","coordinates":[10.800836,59.785835]},"properties":{"name":"Myrvoll","UICIBNR":7600137,"abkuerzung":"NOMYRVOLL","countryCode":"NO"}}}
{"_index":"bahnhoefeno","_type":"bahnhofno","_id":"AWQUViUfhtuDxSpydncw","_score":1,"_source":{"type":"Feature","geometry":{"type":"Point","coordinates":[10.416943,63.437226]},"properties":{"name":"Nedre Elvehavn","UICIBNR":7600486,"abkuerzung":"NONEDREELVEHAVN","countryCode":"NO"}}}
{"_index":"bahnhoefeno","_type":"bahnhofno","_id":"AWQUViUfhtuDxSpydncx","_score":1,"_source":{"type":"Feature","geometry":{"type":"Point","coordinates":[11.142219,59.922498]},"properties":{"name":"Nerdrum","UICIBNR":7600088,"abkuerzung":"NONERDRUM","countryCode":"NO"}}}
{"_index":"bahnhoefeno","_type":"bahnhofno","_id":"AWQUViUfhtuDxSpydncy","_score":1,"_source":{"type":"Feature","geometry":{"type":"Point","coordinates":[9.485274,59.300552]},"properties":{"name":"Nisterud","UICIBNR":7600313,"abkuerzung":"NONISTERUD","countryCode":"NO"}}}
{"_index":"bahnhoefeno","_type":"bahnhofno","_id":"AWQUViUghtuDxSpydnc9","_score":1,"_source":{"type":"Feature","geometry":{"type":"Point","coordinates":[10.755279,59.910282]},"properties":{"name":"Oslo S","UICIBNR":7600001,"abkuerzung":"NOOSLOS","countryCode":"NO"}}}
{"_index":"bahnhoefeno","_type":"bahnhofno","_id":"AWQUViUghtuDxSpydndA","_score":1,"_source":{"type":"Feature","geometry":{"type":"Point","coordinates":[11.339164,59.427219]},"properties":{"name":"Rakkestad","UICIBNR":7600155,"abkuerzung":"NORAKKESTAD","countryCode":"NO"}}}
{"_index":"bahnhoefeno","_type":"bahnhofno","_id":"AWQUViUghtuDxSpydndC","_score":1,"_source":{"type":"Feature","geometry":{"type":"Point","coordinates":[7.13917,60.743887]},"properties":{"name":"Reinunga","UICIBNR":7600453,"abkuerzung":"NOREINUNGA","countryCode":"NO"}}}
{"_index":"bahnhoefeno","_type":"bahnhofno","_id":"AWQUViUghtuDxSpydndD","_score":1,"_source":{"type":"Feature","geometry":{"type":"Point","coordinates":[10.389445,59.747226]},"properties":{"name":"Røyken","UICIBNR":7600287,"abkuerzung":"NOROEYKEN","countryCode":"NO"}}}
{"_index":"bahnhoefeno","_type":"bahnhofno","_id":"AWQUViUghtuDxSpydndE","_score":1,"_source":{"type":"Feature","geometry":{"type":"Point","coordinates":[10.458886,63.004441]},"properties":{"name":"Rognes","UICIBNR":7600229,"abkuerzung":"NOROGNES","countryCode":"NO"}}}
{"_index":"bahnhoefeno","_type":"bahnhofno","_id":"AWQUViUghtuDxSpydndG","_score":1,"_source":{"type":"Feature","geometry":{"type":"Point","coordinates":[10.484721,63.436112]},"properties":{"name":"Rotvoll","UICIBNR":7600415,"abkuerzung":"NOROTVOLL","countryCode":"NO"}}}
{"_index":"bahnhoefeno","_type":"bahnhofno","_id":"AWQUViUghtuDxSpydndJ","_score":1,"_source":{"type":"Feature","geometry":{"type":"Point","coordinates":[10.373057,63.38944]},"properties":{"name":"Selsbakk","UICIBNR":7600243,"abkuerzung":"NOSELSBAKK","countryCode":"NO"}}}
{"_index":"bahnhoefeno","_type":"bahnhofno","_id":"AWQUViUghtuDxSpydndR","_score":1,"_source":{"type":"Feature","geometry":{"type":"Point","coordinates":[11.261947,59.566948]},"properties":{"name":"Slitu","UICIBNR":7600151,"abkuerzung":"NOSLITU","countryCode":"NO"}}}
{"_index":"bahnhoefeno","_type":"bahnhofno","_id":"AWQUViUghtuDxSpydndS","_score":1,"_source":{"type":"Feature","geometry":{"type":"Point","coordinates":[10.288891,63.261667]},"properties":{"name":"Soeberg","UICIBNR":7600241,"abkuerzung":"NOSOEBERG","countryCode":"NO"}}}
{"_index":"bahnhoefeno","_type":"bahnhofno","_id":"AWQUViUghtuDxSpydndg","_score":1,"_source":{"type":"Feature","geometry":{"type":"Point","coordinates":[14.74639,67.301392]},"properties":{"name":"Tverlandet","UICIBNR":7600489,"abkuerzung":"NOTVERLANDET","countryCode":"NO"}}}
{"_index":"bahnhoefeno","_type":"bahnhofno","_id":"AWQUViUghtuDxSpydndi","_score":1,"_source":{"type":"Feature","geometry":{"type":"Point","coordinates":[15.192219,67.299442]},"properties":{"name":"Valnesfjord","UICIBNR":7600474,"abkuerzung":"NOVALNESFJORD","countryCode":"NO"}}}
{"_index":"bahnhoefeno","_type":"bahnhofno","_id":"AWQRUUb7htuDxSpydnTT","_score":1,"_source":{"type":"Feature","geometry":{"type":"Point","coordinates":[11.058583,61.493767]},"properties":{"name":"Stai","UICIBNR":7600206,"abkuerzung":"NOAEZ","countryCode":"NO"}}}
{"_index":"bahnhoefeno","_type":"bahnhofno","_id":"AWQRUUb7htuDxSpydnTl","_score":1,"_source":{"type":"Feature","geometry":{"type":"Point","coordinates":[11.22714,62.497422]},"properties":{"name":"Os","UICIBNR":7600215,"abkuerzung":"NOAFJ","countryCode":"NO"}}}
{"_index":"bahnhoefeno","_type":"bahnhofno","_id":"AWQRUUb7htuDxSpydnTn","_score":1,"_source":{"type":"Feature","geometry":{"type":"Point","coordinates":[11.165024,59.581689]},"properties":{"name":"Askim","UICIBNR":7600150,"abkuerzung":"NOAAM","countryCode":"NO"}}}
{"_index":"bahnhoefeno","_type":"bahnhofno","_id":"AWQRUUb7htuDxSpydnTp","_score":1,"_source":{"type":"Feature","geometry":{"type":"Point","coordinates":[11.342112,60.818704]},"properties":{"name":"Løten","UICIBNR":7600200,"abkuerzung":"NOAES","countryCode":"NO"}}}
{"_index":"bahnhoefeno","_type":"bahnhofno","_id":"AWQRUUb7htuDxSpydnTy","_score":1,"_source":{"type":"Feature","geometry":{"type":"Point","coordinates":[6.551329,58.458101]},"properties":{"name":"Moi","UICIBNR":7600126,"abkuerzung":"NOAGZ","countryCode":"NO"}}}
{"_index":"bahnhoefeno","_type":"bahnhofno","_id":"AWQRUUb7htuDxSpydnT6","_score":1,"_source":{"type":"Feature","geometry":{"type":"Point","coordinates":[11.643718,63.444948]},"properties":{"name":"Meråker","UICIBNR":7600094,"abkuerzung":"NOADD","countryCode":"NO"}}}
{"_index":"bahnhoefeno","_type":"bahnhofno","_id":"AWQRUUb7htuDxSpydnT-","_score":1,"_source":{"type":"Feature","geometry":{"type":"Point","coordinates":[9.125561,62.068789]},"properties":{"name":"Dombås","UICIBNR":7600010,"abkuerzung":"NOACI","countryCode":"NO"}}}
{"_index":"bahnhoefeno","_type":"bahnhofno","_id":"AWQRUUb7htuDxSpydnUA","_score":1,"_source":{"type":"Feature","geometry":{"type":"Point","coordinates":[5.465908,60.420167]},"properties":{"name":"Arna","UICIBNR":7600073,"abkuerzung":"NOAIZ","countryCode":"NO"}}}
{"_index":"bahnhoefeno","_type":"bahnhofno","_id":"AWQRUUb7htuDxSpydnUQ","_score":1,"_source":{"type":"Feature","geometry":{"type":"Point","coordinates":[10.621438,60.283468]},"properties":{"name":"Roa","UICIBNR":7600062,"abkuerzung":"NOABB","countryCode":"NO"}}}
{"_index":"bahnhoefeno","_type":"bahnhofno","_id":"AWQRUUb8htuDxSpydnUT","_score":1,"_source":{"type":"Feature","geometry":{"type":"Point","coordinates":[9.564486,62.215259]},"properties":{"name":"Hjerkinn","UICIBNR":7600110,"abkuerzung":"NOACO","countryCode":"NO"}}}
{"_index":"bahnhoefeno","_type":"bahnhofno","_id":"AWQRUUb8htuDxSpydnUY","_score":1,"_source":{"type":"Feature","geometry":{"type":"Point","coordinates":[10.500542,60.468358]},"properties":{"name":"Bleiken","UICIBNR":7600172,"abkuerzung":"NOABF","countryCode":"NO"}}}
{"_index":"bahnhoefeno","_type":"bahnhofno","_id":"AWQRUUb8htuDxSpydnUc","_score":1,"_source":{"type":"Feature","geometry":{"type":"Point","coordinates":[6.731221,60.678149]},"properties":{"name":"Reimegrend","UICIBNR":7600360,"abkuerzung":"NOAIS","countryCode":"NO"}}}
{"_index":"bahnhoefeno","_type":"bahnhofno","_id":"AWQRUUb8htuDxSpydnUe","_score":1,"_source":{"type":"Feature","geometry":{"type":"Point","coordinates":[10.74806,59.37812]},"properties":{"name":"Rygge","UICIBNR":7600142,"abkuerzung":"NOAAF","countryCode":"NO"}}}
{"_index":"bahnhoefeno","_type":"bahnhofno","_id":"AWQRUUb8htuDxSpydnUg","_score":1,"_source":{"type":"Feature","geometry":{"type":"Point","coordinates":[14.132265,66.308992]},"properties":{"name":"Mo i Rana","UICIBNR":7600047,"abkuerzung":"NOAEI","countryCode":"NO"}}}
{"_index":"bahnhoefeno","_type":"bahnhofno","_id":"AWQRUUb8htuDxSpydnUi","_score":1,"_source":{"type":"Feature","geometry":{"type":"Point","coordinates":[11.378986,62.574459]},"properties":{"name":"Røros","UICIBNR":7600217,"abkuerzung":"NOAFK","countryCode":"NO"}}}
{"_index":"bahnhoefeno","_type":"bahnhofno","_id":"AWQRUUb8htuDxSpydnUm","_score":1,"_source":{"type":"Feature","geometry":{"type":"Point","coordinates":[11.680709,60.253867]},"properties":{"name":"Skarnes","UICIBNR":7600105,"abkuerzung":"NOAAP","countryCode":"NO"}}}
{"_index":"bahnhoefeno","_type":"bahnhofno","_id":"AWQRUUb8htuDxSpydnUt","_score":1,"_source":{"type":"Feature","geometry":{"type":"Point","coordinates":[10.950704,59.209078]},"properties":{"name":"Fredrikstad","UICIBNR":7600003,"abkuerzung":"NOAAH","countryCode":"NO"}}}
{"_index":"bahnhoefeno","_type":"bahnhofno","_id":"AWQRUUb8htuDxSpydnU7","_score":1,"_source":{"type":"Feature","geometry":{"type":"Point","coordinates":[10.794013,63.411786]},"properties":{"name":"Hommelvik","UICIBNR":7689011,"abkuerzung":"NOACW","countryCode":"NO"}}}
{"_index":"bahnhoefeno","_type":"bahnhofno","_id":"AWQRUUb8htuDxSpydnU8","_score":1,"_source":{"type":"Feature","geometry":{"type":"Point","coordinates":[11.425289,63.456786]},"properties":{"name":"Gudå","UICIBNR":7600249,"abkuerzung":"NOADC","countryCode":"NO"}}}
{"_index":"bahnhoefeno","_type":"bahnhofno","_id":"AWQRUUb8htuDxSpydnVC","_score":1,"_source":{"type":"Feature","geometry":{"type":"Point","coordinates":[10.780358,59.941123]},"properties":{"name":"Grefsen","UICIBNR":7600116,"abkuerzung":"NOAAV","countryCode":"NO"}}}
{"_index":"bahnhoefeno","_type":"bahnhofno","_id":"AWQRUUb8htuDxSpydnVD","_score":1,"_source":{"type":"Feature","geometry":{"type":"Point","coordinates":[10.723807,60.192408]},"properties":{"name":"Harestua","UICIBNR":7600117,"abkuerzung":"NOAAY","countryCode":"NO"}}}
{"_index":"bahnhoefeno","_type":"bahnhofno","_id":"AWQRUUb8htuDxSpydnVF","_score":1,"_source":{"type":"Feature","geometry":{"type":"Point","coordinates":[10.525451,59.892887]},"properties":{"name":"Sandvika","UICIBNR":7600281,"abkuerzung":"NOAFR","countryCode":"NO"}}}
{"_index":"bahnhoefeno","_type":"bahnhofno","_id":"AWQRUUb8htuDxSpydnVL","_score":1,"_source":{"type":"Feature","geometry":{"type":"Point","coordinates":[10.984791,63.444363]},"properties":{"name":"Hegra","UICIBNR":7689012,"abkuerzung":"NOACZ","countryCode":"NO"}}}
{"_index":"bahnhoefeno","_type":"bahnhofno","_id":"AWQRUUb8htuDxSpydnVO","_score":1,"_source":{"type":"Feature","geometry":{"type":"Point","coordinates":[10.05767,62.841583]},"properties":{"name":"Berkåk","UICIBNR":7600112,"abkuerzung":"NOACS","countryCode":"NO"}}}
{"_index":"bahnhoefeno","_type":"bahnhofno","_id":"AWQRUUb8htuDxSpydnVb","_score":1,"_source":{"type":"Feature","geometry":{"type":"Point","coordinates":[7.987275,58.145645]},"properties":{"name":"Kristiansand","UICIBNR":7600069,"abkuerzung":"NOAGO","countryCode":"NO"}}}
{"_index":"bahnhoefeno","_type":"bahnhofno","_id":"AWQRUUb8htuDxSpydnVi","_score":1,"_source":{"type":"Feature","geometry":{"type":"Point","coordinates":[10.998077,62.408473]},"properties":{"name":"Tolga","UICIBNR":7600214,"abkuerzung":"NOAFI","countryCode":"NO"}}}
{"_index":"bahnhoefeno","_type":"bahnhofno","_id":"AWQRUUb8htuDxSpydnVs","_score":1,"_source":{"type":"Feature","geometry":{"type":"Point","coordinates":[10.659031,62.221138]},"properties":{"name":"Auma","UICIBNR":7600213,"abkuerzung":"NOAFG","countryCode":"NO"}}}
{"_index":"bahnhoefeno","_type":"bahnhofno","_id":"AWQRUUb8htuDxSpydnVv","_score":1,"_source":{"type":"Feature","geometry":{"type":"Point","coordinates":[8.624143,58.468429]},"properties":{"name":"Rise","UICIBNR":7600336,"abkuerzung":"NOAHN","countryCode":"NO"}}}
