{"_index":"bahnhoefebe","_type":"bahnhofbe","_id":"AWYZvjHZxpPIvaVA5CDL","_score":1,"_source":{"type":"Feature","geometry":{"type":"Point","coordinates":[4.3362419,50.8356748]},"properties":{"name":"Brussels South Stn. (Bruxelles-Midi)","UICIBNR":8800004,"DBIBNR":"8800004","abkuerzung":4,"countryCode":"BE"}}}
{"_index":"bahnhoefebe","_type":"bahnhofbe","_id":"AWYZvjHZxpPIvaVA5CDN","_score":1,"_source":{"type":"Feature","geometry":{"type":"Point","coordinates":[4.2404541,50.7337626]},"properties":{"name":"Halle (B)","UICIBNR":8800006,"DBIBNR":"8800006","abkuerzung":6,"countryCode":"BE"}}}
{"_index":"bahnhoefebe","_type":"bahnhofbe","_id":"AWYZvjHZxpPIvaVA5CDO","_score":1,"_source":{"type":"Feature","geometry":{"type":"Point","coordinates":[4.4210056,51.2155257]},"properties":{"name":"Anvers central (Antwerpen Centraal)","UICIBNR":8800007,"DBIBNR":"8800007","abkuerzung":7,"countryCode":"BE"}}}
{"_index":"bahnhoefebe","_type":"bahnhofbe","_id":"AWYZvjHZxpPIvaVA5CDP","_score":1,"_source":{"type":"Feature","geometry":{"type":"Point","coordinates":[4.4322362,51.1997114]},"properties":{"name":"Berchem (Belgien) (Antwerpen-Berchem)","UICIBNR":8800008,"DBIBNR":"8800008","abkuerzung":8,"countryCode":"BE"}}}
{"_index":"bahnhoefebe","_type":"bahnhofbe","_id":"AWYZvjHZxpPIvaVA5CDT","_score":1,"_source":{"type":"Feature","geometry":{"type":"Point","coordinates":[5.5665227,50.6243594]},"properties":{"name":"Lüttich (Liège-Guillemins)","UICIBNR":8800012,"DBIBNR":"8800012","abkuerzung":12,"countryCode":"BE"}}}
{"_index":"bahnhoefebe","_type":"bahnhofbe","_id":"AWYZvjHZxpPIvaVA5CDU","_score":1,"_source":{"type":"Feature","geometry":{"type":"Point","coordinates":[5.5092244,50.6612293]},"properties":{"name":"Ans (B)","UICIBNR":8800013,"DBIBNR":"8800013","abkuerzung":13,"countryCode":"BE"}}}
{"_index":"bahnhoefebe","_type":"bahnhofbe","_id":"AWYZvjHZxpPIvaVA5CDV","_score":1,"_source":{"type":"Feature","geometry":{"type":"Point","coordinates":[5.5855511,50.4860705]},"properties":{"name":"Rivage","UICIBNR":8800014,"DBIBNR":"8800014","abkuerzung":14,"countryCode":"BE"}}}
{"_index":"bahnhoefebe","_type":"bahnhofbe","_id":"AWYZvjHZxpPIvaVA5CDd","_score":1,"_source":{"type":"Feature","geometry":{"type":"Point","coordinates":[5.8094185,49.6801339]},"properties":{"name":"Arlon","UICIBNR":8800022,"DBIBNR":"8800022","abkuerzung":22,"countryCode":"BE"}}}
{"_index":"bahnhoefebe","_type":"bahnhofbe","_id":"AWYZvjHZxpPIvaVA5CDe","_score":1,"_source":{"type":"Feature","geometry":{"type":"Point","coordinates":[4.112209,50.303656]},"properties":{"name":"Erquelinnes","UICIBNR":8800023,"DBIBNR":"8800023","abkuerzung":23,"countryCode":"BE"}}}
{"_index":"bahnhoefebe","_type":"bahnhofbe","_id":"AWYZvjHZxpPIvaVA5CDh","_score":1,"_source":{"type":"Feature","geometry":{"type":"Point","coordinates":[3.9094332,50.3413694]},"properties":{"name":"Quevy","UICIBNR":8800026,"DBIBNR":"8800026","abkuerzung":26,"countryCode":"BE"}}}
{"_index":"bahnhoefebe","_type":"bahnhofbe","_id":"AWYZvjHZxpPIvaVA5CDi","_score":1,"_source":{"type":"Feature","geometry":{"type":"Point","coordinates":[4.0471432,50.6972347]},"properties":{"name":"Enghien / Edingen","UICIBNR":8800027,"DBIBNR":"8800027","abkuerzung":27,"countryCode":"BE"}}}
{"_index":"bahnhoefebe","_type":"bahnhofbe","_id":"AWYZvjHaxpPIvaVA5CDl","_score":1,"_source":{"type":"Feature","geometry":{"type":"Point","coordinates":[2.9266641,51.2278045]},"properties":{"name":"Ostende Bhf (Oostende)","UICIBNR":8800030,"DBIBNR":"8800030","abkuerzung":30,"countryCode":"BE"}}}
{"_index":"bahnhoefebe","_type":"bahnhofbe","_id":"AWYZvjHaxpPIvaVA5CDq","_score":1,"_source":{"type":"Feature","geometry":{"type":"Point","coordinates":[5.2677125,49.8528432]},"properties":{"name":"Bertrix","UICIBNR":8800035,"DBIBNR":"8800035","abkuerzung":35,"countryCode":"BE"}}}
{"_index":"bahnhoefebe","_type":"bahnhofbe","_id":"AWYZvjHaxpPIvaVA5CDs","_score":1,"_source":{"type":"Feature","geometry":{"type":"Point","coordinates":[4.2596164,51.208251]},"properties":{"name":"Beveren","UICIBNR":8800037,"DBIBNR":"8800037","abkuerzung":37,"countryCode":"BE"}}}
{"_index":"bahnhoefebe","_type":"bahnhofbe","_id":"AWYZvjHaxpPIvaVA5CDx","_score":1,"_source":{"type":"Feature","geometry":{"type":"Point","coordinates":[4.3757889,50.6847958]},"properties":{"name":"Braine-l'Alleud","UICIBNR":8800042,"DBIBNR":"8800042","abkuerzung":42,"countryCode":"BE"}}}
{"_index":"bahnhoefebe","_type":"bahnhofbe","_id":"AWYZvjHaxpPIvaVA5CD6","_score":1,"_source":{"type":"Feature","geometry":{"type":"Point","coordinates":[4.1007883,51.0228002]},"properties":{"name":"Dendermonde","UICIBNR":8800051,"DBIBNR":"NULL","abkuerzung":51,"countryCode":"BE"}}}
{"_index":"bahnhoefebe","_type":"bahnhofbe","_id":"AWYZvjHaxpPIvaVA5CD7","_score":1,"_source":{"type":"Feature","geometry":{"type":"Point","coordinates":[5.0517027,50.993026]},"properties":{"name":"Diest","UICIBNR":8800052,"DBIBNR":"NULL","abkuerzung":52,"countryCode":"BE"}}}
{"_index":"bahnhoefebe","_type":"bahnhofbe","_id":"AWYZvjHaxpPIvaVA5CES","_score":1,"_source":{"type":"Feature","geometry":{"type":"Point","coordinates":[3.043468,51.0251119]},"properties":{"name":"Kortemark","UICIBNR":8800076,"DBIBNR":"NULL","abkuerzung":76,"countryCode":"BE"}}}
{"_index":"bahnhoefebe","_type":"bahnhofbe","_id":"AWYZvjHaxpPIvaVA5CET","_score":1,"_source":{"type":"Feature","geometry":{"type":"Point","coordinates":[3.2644438,50.8242833]},"properties":{"name":"Kortrijk","UICIBNR":8800077,"DBIBNR":"NULL","abkuerzung":77,"countryCode":"BE"}}}
{"_index":"bahnhoefebe","_type":"bahnhofbe","_id":"AWYZvjHaxpPIvaVA5CEg","_score":1,"_source":{"type":"Feature","geometry":{"type":"Point","coordinates":[4.4331488,50.9245396]},"properties":{"name":"Vilvoorde","UICIBNR":8800090,"DBIBNR":"NULL","abkuerzung":90,"countryCode":"BE"}}}
{"_index":"bahnhoefebe","_type":"bahnhofbe","_id":"AWYZvjHaxpPIvaVA5CEh","_score":1,"_source":{"type":"Feature","geometry":{"type":"Point","coordinates":[4.4363617,50.2596458]},"properties":{"name":"Walcourt","UICIBNR":8800091,"DBIBNR":"NULL","abkuerzung":91,"countryCode":"BE"}}}
{"_index":"bahnhoefebe","_type":"bahnhofbe","_id":"AWYZvjHaxpPIvaVA5CEi","_score":1,"_source":{"type":"Feature","geometry":{"type":"Point","coordinates":[3.4244906,50.8915923]},"properties":{"name":"Waregem","UICIBNR":8800092,"DBIBNR":"NULL","abkuerzung":92,"countryCode":"BE"}}}
{"_index":"bahnhoefebe","_type":"bahnhofbe","_id":"AWYZvjHaxpPIvaVA5CEn","_score":1,"_source":{"type":"Feature","geometry":{"type":"Point","coordinates":[4.9883129,51.0064156]},"properties":{"name":"Zichem","UICIBNR":8800097,"DBIBNR":"NULL","abkuerzung":97,"countryCode":"BE"}}}
{"_index":"bahnhoefebe","_type":"bahnhofbe","_id":"AWYZvjHaxpPIvaVA5CEs","_score":1,"_source":{"type":"Feature","geometry":{"type":"Point","coordinates":[5.6131341,50.6444747]},"properties":{"name":"Bressoux","UICIBNR":8800107,"DBIBNR":"NULL","abkuerzung":107,"countryCode":"BE"}}}
{"_index":"bahnhoefebe","_type":"bahnhofbe","_id":"AWYZvjHaxpPIvaVA5CEt","_score":1,"_source":{"type":"Feature","geometry":{"type":"Point","coordinates":[6.037332,50.6353222]},"properties":{"name":"Eupen","UICIBNR":8800110,"DBIBNR":"NULL","abkuerzung":110,"countryCode":"BE"}}}
{"_index":"bahnhoefebe","_type":"bahnhofbe","_id":"AWYZvjHbxpPIvaVA5CEu","_score":1,"_source":{"type":"Feature","geometry":{"type":"Point","coordinates":[5.4962849,50.9671032]},"properties":{"name":"Genk","UICIBNR":8800111,"DBIBNR":"NULL","abkuerzung":111,"countryCode":"BE"}}}
{"_index":"bahnhoefebe","_type":"bahnhofbe","_id":"AWYZvjHbxpPIvaVA5CEx","_score":1,"_source":{"type":"Feature","geometry":{"type":"Point","coordinates":[4.2346456,50.5061781]},"properties":{"name":"Manage","UICIBNR":8800121,"DBIBNR":"NULL","abkuerzung":121,"countryCode":"BE"}}}
{"_index":"bahnhoefebe","_type":"bahnhofbe","_id":"AWYZvjHbxpPIvaVA5CEy","_score":1,"_source":{"type":"Feature","geometry":{"type":"Point","coordinates":[4.3940471,50.4122604]},"properties":{"name":"Marchienne au Pont","UICIBNR":8800122,"DBIBNR":"NULL","abkuerzung":122,"countryCode":"BE"}}}
{"_index":"bahnhoefebe","_type":"bahnhofbe","_id":"AWYZvjHbxpPIvaVA5CE4","_score":1,"_source":{"type":"Feature","geometry":{"type":"Point","coordinates":[4.5132329,51.0087093]},"properties":{"name":"Muizen","UICIBNR":8800129,"DBIBNR":"NULL","abkuerzung":129,"countryCode":"BE"}}}
{"_index":"bahnhoefebe","_type":"bahnhofbe","_id":"AWYZvjHbxpPIvaVA5CFA","_score":1,"_source":{"type":"Feature","geometry":{"type":"Point","coordinates":[5.293277,50.019037]},"properties":{"name":"Poix-St-Hubert","UICIBNR":8800141,"DBIBNR":"NULL","abkuerzung":141,"countryCode":"BE"}}}
{"_index":"bahnhoefebe","_type":"bahnhofbe","_id":"AWYZvjHbxpPIvaVA5CFJ","_score":1,"_source":{"type":"Feature","geometry":{"type":"Point","coordinates":[4.3351983,50.6001387]},"properties":{"name":"Lillois- (Nivelles)","UICIBNR":8800152,"DBIBNR":"NULL","abkuerzung":152,"countryCode":"BE"}}}
{"_index":"bahnhoefebe","_type":"bahnhofbe","_id":"AWYZvjHbxpPIvaVA5CFP","_score":1,"_source":{"type":"Feature","geometry":{"type":"Point","coordinates":[3.2275603,50.7399895]},"properties":{"name":"Mouscron","UICIBNR":8800159,"DBIBNR":"NULL","abkuerzung":159,"countryCode":"BE"}}}
{"_index":"bahnhoefebe","_type":"bahnhofbe","_id":"AWYZvjHbxpPIvaVA5CFR","_score":1,"_source":{"type":"Feature","geometry":{"type":"Point","coordinates":[5.5013462,50.3490596]},"properties":{"name":"Barvaux","UICIBNR":8800162,"DBIBNR":"NULL","abkuerzung":162,"countryCode":"BE"}}}
{"_index":"bahnhoefebe","_type":"bahnhofbe","_id":"AWYZvjHbxpPIvaVA5CFY","_score":1,"_source":{"type":"Feature","geometry":{"type":"Point","coordinates":[5.2199796,50.5280785]},"properties":{"name":"Statte","UICIBNR":8800169,"DBIBNR":"NULL","abkuerzung":169,"countryCode":"BE"}}}
{"_index":"bahnhoefebe","_type":"bahnhofbe","_id":"AWYZvjHbxpPIvaVA5CFh","_score":1,"_source":{"type":"Feature","geometry":{"type":"Point","coordinates":[5.452736,49.85405]},"properties":{"name":"Neufchateau (B)","UICIBNR":8800181,"DBIBNR":"NULL","abkuerzung":181,"countryCode":"BE"}}}
{"_index":"bahnhoefebe","_type":"bahnhofbe","_id":"AWYZvjHbxpPIvaVA5CFj","_score":1,"_source":{"type":"Feature","geometry":{"type":"Point","coordinates":[4.4666719,51.3911595]},"properties":{"name":"Kalmthout","UICIBNR":8800183,"DBIBNR":"NULL","abkuerzung":183,"countryCode":"BE"}}}
{"_index":"bahnhoefebe","_type":"bahnhofbe","_id":"AWYZvjHbxpPIvaVA5CFo","_score":1,"_source":{"type":"Feature","geometry":{"type":"Point","coordinates":[4.4342636,51.2815217]},"properties":{"name":"Ekeren","UICIBNR":8800189,"DBIBNR":"NULL","abkuerzung":189,"countryCode":"BE"}}}
{"_index":"bahnhoefebe","_type":"bahnhofbe","_id":"AWYZvjHbxpPIvaVA5CFr","_score":1,"_source":{"type":"Feature","geometry":{"type":"Point","coordinates":[4.4634054,51.4277589]},"properties":{"name":"Wildert","UICIBNR":8800193,"DBIBNR":"NULL","abkuerzung":193,"countryCode":"BE"}}}
{"_index":"bahnhoefebe","_type":"bahnhofbe","_id":"AWYZvjHbxpPIvaVA5CFs","_score":1,"_source":{"type":"Feature","geometry":{"type":"Point","coordinates":[4.4479898,51.1831979]},"properties":{"name":"Mortsel","UICIBNR":8800194,"DBIBNR":"NULL","abkuerzung":194,"countryCode":"BE"}}}
{"_index":"bahnhoefebe","_type":"bahnhofbe","_id":"AWYZvjHbxpPIvaVA5CFt","_score":1,"_source":{"type":"Feature","geometry":{"type":"Point","coordinates":[4.4943091,51.1635962]},"properties":{"name":"Boechout","UICIBNR":8800195,"DBIBNR":"NULL","abkuerzung":195,"countryCode":"BE"}}}
{"_index":"bahnhoefebe","_type":"bahnhofbe","_id":"AWYZvjHbxpPIvaVA5CFu","_score":1,"_source":{"type":"Feature","geometry":{"type":"Point","coordinates":[4.617499,51.1507483]},"properties":{"name":"Kessel","UICIBNR":8800196,"DBIBNR":"NULL","abkuerzung":196,"countryCode":"BE"}}}
{"_index":"bahnhoefebe","_type":"bahnhofbe","_id":"AWYZvjHcxpPIvaVA5CF6","_score":1,"_source":{"type":"Feature","geometry":{"type":"Point","coordinates":[5.1755926,50.8171999]},"properties":{"name":"Sint-Truiden","UICIBNR":8800209,"DBIBNR":"NULL","abkuerzung":209,"countryCode":"BE"}}}
{"_index":"bahnhoefebe","_type":"bahnhofbe","_id":"AWYZvjHcxpPIvaVA5CF_","_score":1,"_source":{"type":"Feature","geometry":{"type":"Point","coordinates":[4.4577567,50.9585971]},"properties":{"name":"Eppegem","UICIBNR":8800215,"DBIBNR":"NULL","abkuerzung":215,"countryCode":"BE"}}}
{"_index":"bahnhoefebe","_type":"bahnhofbe","_id":"AWYZvjHcxpPIvaVA5CGC","_score":1,"_source":{"type":"Feature","geometry":{"type":"Point","coordinates":[4.4929452,51.0913786]},"properties":{"name":"Duffel","UICIBNR":8800218,"DBIBNR":"NULL","abkuerzung":218,"countryCode":"BE"}}}
{"_index":"bahnhoefebe","_type":"bahnhofbe","_id":"AWYZvjHcxpPIvaVA5CGG","_score":1,"_source":{"type":"Feature","geometry":{"type":"Point","coordinates":[4.4471967,51.1822868]},"properties":{"name":"Mortsel-Deurnesteenweg","UICIBNR":8800222,"DBIBNR":"NULL","abkuerzung":222,"countryCode":"BE"}}}
{"_index":"bahnhoefebe","_type":"bahnhofbe","_id":"AWYZvjHcxpPIvaVA5CGS","_score":1,"_source":{"type":"Feature","geometry":{"type":"Point","coordinates":[5.5619592,50.6405117]},"properties":{"name":"Liège-Jonfosse","UICIBNR":8800235,"DBIBNR":"NULL","abkuerzung":235,"countryCode":"BE"}}}
{"_index":"bahnhoefebe","_type":"bahnhofbe","_id":"AWYZvjHcxpPIvaVA5CGc","_score":1,"_source":{"type":"Feature","geometry":{"type":"Point","coordinates":[4.4456696,50.8900125]},"properties":{"name":"Diegem","UICIBNR":8800246,"DBIBNR":"NULL","abkuerzung":246,"countryCode":"BE"}}}
{"_index":"bahnhoefebe","_type":"bahnhofbe","_id":"AWYZvjHcxpPIvaVA5CGl","_score":1,"_source":{"type":"Feature","geometry":{"type":"Point","coordinates":[5.0366394,50.7637533]},"properties":{"name":"Neerwinden","UICIBNR":8800255,"DBIBNR":"NULL","abkuerzung":255,"countryCode":"BE"}}}
{"_index":"bahnhoefebe","_type":"bahnhofbe","_id":"AWYZvjHcxpPIvaVA5CGv","_score":1,"_source":{"type":"Feature","geometry":{"type":"Point","coordinates":[5.7418708,50.571979]},"properties":{"name":"Nessonvaux","UICIBNR":8800267,"DBIBNR":"NULL","abkuerzung":267,"countryCode":"BE"}}}
{"_index":"bahnhoefebe","_type":"bahnhofbe","_id":"AWYZvjHcxpPIvaVA5CGx","_score":1,"_source":{"type":"Feature","geometry":{"type":"Point","coordinates":[5.9383631,50.6254527]},"properties":{"name":"Dolhain-Gileppe","UICIBNR":8800269,"DBIBNR":"NULL","abkuerzung":269,"countryCode":"BE"}}}
{"_index":"bahnhoefebe","_type":"bahnhofbe","_id":"AWYZvjHcxpPIvaVA5CGz","_score":1,"_source":{"type":"Feature","geometry":{"type":"Point","coordinates":[5.5872314,50.5478426]},"properties":{"name":"Mery (B)","UICIBNR":8800271,"DBIBNR":"NULL","abkuerzung":271,"countryCode":"BE"}}}
{"_index":"bahnhoefebe","_type":"bahnhofbe","_id":"AWYZvjHcxpPIvaVA5CG5","_score":1,"_source":{"type":"Feature","geometry":{"type":"Point","coordinates":[5.5238951,50.4030488]},"properties":{"name":"Sy (B)","UICIBNR":8800278,"DBIBNR":"NULL","abkuerzung":278,"countryCode":"BE"}}}
{"_index":"bahnhoefebe","_type":"bahnhofbe","_id":"AWYZvjHcxpPIvaVA5CG9","_score":1,"_source":{"type":"Feature","geometry":{"type":"Point","coordinates":[4.348357,50.879521]},"properties":{"name":"Bockstael","UICIBNR":8800282,"DBIBNR":"NULL","abkuerzung":282,"countryCode":"BE"}}}
{"_index":"bahnhoefebe","_type":"bahnhofbe","_id":"AWYZvjHdxpPIvaVA5CHJ","_score":1,"_source":{"type":"Feature","geometry":{"type":"Point","coordinates":[3.8287118,50.9917155]},"properties":{"name":"Kwatrecht","UICIBNR":8800294,"DBIBNR":"NULL","abkuerzung":294,"countryCode":"BE"}}}
{"_index":"bahnhoefebe","_type":"bahnhofbe","_id":"AWYZvjHdxpPIvaVA5CHV","_score":1,"_source":{"type":"Feature","geometry":{"type":"Point","coordinates":[3.2018671,51.223137]},"properties":{"name":"Brügge (B) St Pieters (Brugge-St.-Pieters)","UICIBNR":8800307,"DBIBNR":"NULL","abkuerzung":307,"countryCode":"BE"}}}
{"_index":"bahnhoefebe","_type":"bahnhofbe","_id":"AWYZvjHdxpPIvaVA5CHd","_score":1,"_source":{"type":"Feature","geometry":{"type":"Point","coordinates":[4.2827656,51.0772578]},"properties":{"name":"Puurs","UICIBNR":8800316,"DBIBNR":"NULL","abkuerzung":316,"countryCode":"BE"}}}
{"_index":"bahnhoefebe","_type":"bahnhofbe","_id":"AWYZvjHdxpPIvaVA5CHg","_score":1,"_source":{"type":"Feature","geometry":{"type":"Point","coordinates":[4.1532763,51.0194714]},"properties":{"name":"Baasrode-Zuid","UICIBNR":8800319,"DBIBNR":"NULL","abkuerzung":319,"countryCode":"BE"}}}
{"_index":"bahnhoefebe","_type":"bahnhofbe","_id":"AWYZvjHdxpPIvaVA5CHh","_score":1,"_source":{"type":"Feature","geometry":{"type":"Point","coordinates":[4.0642215,51.0151351]},"properties":{"name":"Oudegem","UICIBNR":8800320,"DBIBNR":"NULL","abkuerzung":320,"countryCode":"BE"}}}
{"_index":"bahnhoefebe","_type":"bahnhofbe","_id":"AWYZvjHdxpPIvaVA5CHt","_score":1,"_source":{"type":"Feature","geometry":{"type":"Point","coordinates":[3.5748546,51.1811374]},"properties":{"name":"Eeklo","UICIBNR":8800332,"DBIBNR":"NULL","abkuerzung":332,"countryCode":"BE"}}}
{"_index":"bahnhoefebe","_type":"bahnhofbe","_id":"AWYZvjHdxpPIvaVA5CH4","_score":1,"_source":{"type":"Feature","geometry":{"type":"Point","coordinates":[3.1639742,51.1269293]},"properties":{"name":"Zedelgem","UICIBNR":8800345,"DBIBNR":"NULL","abkuerzung":345,"countryCode":"BE"}}}
{"_index":"bahnhoefebe","_type":"bahnhofbe","_id":"AWYZvjHdxpPIvaVA5CH7","_score":1,"_source":{"type":"Feature","geometry":{"type":"Point","coordinates":[3.1827759,50.8110751]},"properties":{"name":"Wevelgem","UICIBNR":8800348,"DBIBNR":"NULL","abkuerzung":348,"countryCode":"BE"}}}
{"_index":"bahnhoefebe","_type":"bahnhofbe","_id":"AWYZvjHdxpPIvaVA5CID","_score":1,"_source":{"type":"Feature","geometry":{"type":"Point","coordinates":[4.2873321,51.2107633]},"properties":{"name":"Melsele","UICIBNR":8800356,"DBIBNR":"NULL","abkuerzung":356,"countryCode":"BE"}}}
{"_index":"bahnhoefebe","_type":"bahnhofbe","_id":"AWYZvjHdxpPIvaVA5CIH","_score":1,"_source":{"type":"Feature","geometry":{"type":"Point","coordinates":[3.9209622,50.9069539]},"properties":{"name":"Burst","UICIBNR":8800360,"DBIBNR":"NULL","abkuerzung":360,"countryCode":"BE"}}}
{"_index":"bahnhoefebe","_type":"bahnhofbe","_id":"AWYZvjHexpPIvaVA5CIS","_score":1,"_source":{"type":"Feature","geometry":{"type":"Point","coordinates":[3.7330341,50.8755623]},"properties":{"name":"Munkzwalm","UICIBNR":8800372,"DBIBNR":"NULL","abkuerzung":372,"countryCode":"BE"}}}
{"_index":"bahnhoefebe","_type":"bahnhofbe","_id":"AWYZvjHexpPIvaVA5CIY","_score":1,"_source":{"type":"Feature","geometry":{"type":"Point","coordinates":[4.0261847,50.8394584]},"properties":{"name":"Ninove","UICIBNR":8800378,"DBIBNR":"NULL","abkuerzung":378,"countryCode":"BE"}}}
{"_index":"bahnhoefebe","_type":"bahnhofbe","_id":"AWYZvjHexpPIvaVA5CIc","_score":1,"_source":{"type":"Feature","geometry":{"type":"Point","coordinates":[3.920754,50.8014962]},"properties":{"name":"Idegem","UICIBNR":8800382,"DBIBNR":"NULL","abkuerzung":382,"countryCode":"BE"}}}
{"_index":"bahnhoefebe","_type":"bahnhofbe","_id":"AWYZvjHexpPIvaVA5CIh","_score":1,"_source":{"type":"Feature","geometry":{"type":"Point","coordinates":[3.8468885,50.7326705]},"properties":{"name":"Acren","UICIBNR":8800387,"DBIBNR":"NULL","abkuerzung":387,"countryCode":"BE"}}}
{"_index":"bahnhoefebe","_type":"bahnhofbe","_id":"AWYZvjHexpPIvaVA5CIr","_score":1,"_source":{"type":"Feature","geometry":{"type":"Point","coordinates":[4.2949493,50.7910711]},"properties":{"name":"Ruisbroek","UICIBNR":8800398,"DBIBNR":"NULL","abkuerzung":398,"countryCode":"BE"}}}
{"_index":"bahnhoefebe","_type":"bahnhofbe","_id":"AWYZvjHexpPIvaVA5CIz","_score":1,"_source":{"type":"Feature","geometry":{"type":"Point","coordinates":[3.9062025,50.4059057]},"properties":{"name":"Frameries","UICIBNR":8800407,"DBIBNR":"NULL","abkuerzung":407,"countryCode":"BE"}}}
{"_index":"bahnhoefebe","_type":"bahnhofbe","_id":"AWYZvjHexpPIvaVA5CI5","_score":1,"_source":{"type":"Feature","geometry":{"type":"Point","coordinates":[4.15719,50.5619]},"properties":{"name":"Ecaussinnes","UICIBNR":8800413,"DBIBNR":"NULL","abkuerzung":413,"countryCode":"BE"}}}
{"_index":"bahnhoefebe","_type":"bahnhofbe","_id":"AWYZvjHexpPIvaVA5CI6","_score":1,"_source":{"type":"Feature","geometry":{"type":"Point","coordinates":[4.1769729,50.5462512]},"properties":{"name":"Marche-lez-Ecaussinnes","UICIBNR":8800414,"DBIBNR":"NULL","abkuerzung":414,"countryCode":"BE"}}}
{"_index":"bahnhoefebe","_type":"bahnhofbe","_id":"AWYZvjHexpPIvaVA5CI_","_score":1,"_source":{"type":"Feature","geometry":{"type":"Point","coordinates":[4.2903572,50.4929365]},"properties":{"name":"Godarville","UICIBNR":8800419,"DBIBNR":"NULL","abkuerzung":419,"countryCode":"BE"}}}
{"_index":"bahnhoefebe","_type":"bahnhofbe","_id":"AWYZvjHexpPIvaVA5CJC","_score":1,"_source":{"type":"Feature","geometry":{"type":"Point","coordinates":[4.3838834,50.5061669]},"properties":{"name":"Luttre","UICIBNR":8800422,"DBIBNR":"NULL","abkuerzung":422,"countryCode":"BE"}}}
{"_index":"bahnhoefebe","_type":"bahnhofbe","_id":"AWYZvjHexpPIvaVA5CJD","_score":1,"_source":{"type":"Feature","geometry":{"type":"Point","coordinates":[4.4007467,50.4630198]},"properties":{"name":"Courcelles-Motte","UICIBNR":8800423,"DBIBNR":"NULL","abkuerzung":423,"countryCode":"BE"}}}
{"_index":"bahnhoefebe","_type":"bahnhofbe","_id":"AWYZvjHexpPIvaVA5CJF","_score":1,"_source":{"type":"Feature","geometry":{"type":"Point","coordinates":[3.9561329,50.4716498]},"properties":{"name":"Nimy","UICIBNR":8800426,"DBIBNR":"NULL","abkuerzung":426,"countryCode":"BE"}}}
{"_index":"bahnhoefebe","_type":"bahnhofbe","_id":"AWYZvjHexpPIvaVA5CJH","_score":1,"_source":{"type":"Feature","geometry":{"type":"Point","coordinates":[4.0598251,50.4706732]},"properties":{"name":"Havre","UICIBNR":8800428,"DBIBNR":"NULL","abkuerzung":428,"countryCode":"BE"}}}
{"_index":"bahnhoefebe","_type":"bahnhofbe","_id":"AWYZvjHexpPIvaVA5CJP","_score":1,"_source":{"type":"Feature","geometry":{"type":"Point","coordinates":[3.791251,50.9706143]},"properties":{"name":"Landskouter","UICIBNR":8800437,"DBIBNR":"NULL","abkuerzung":437,"countryCode":"BE"}}}
{"_index":"bahnhoefebe","_type":"bahnhofbe","_id":"AWYZvjHexpPIvaVA5CJX","_score":1,"_source":{"type":"Feature","geometry":{"type":"Point","coordinates":[3.9660625,50.7437105]},"properties":{"name":"Galmaarden","UICIBNR":8800445,"DBIBNR":"NULL","abkuerzung":445,"countryCode":"BE"}}}
{"_index":"bahnhoefebe","_type":"bahnhofbe","_id":"AWYZvjHexpPIvaVA5CJZ","_score":1,"_source":{"type":"Feature","geometry":{"type":"Point","coordinates":[4.3207166,50.8095568]},"properties":{"name":"Vorst-Oost","UICIBNR":8800447,"DBIBNR":"NULL","abkuerzung":447,"countryCode":"BE"}}}
