{"_index":"bahnhoefefr","_type":"bahnhoffr","_id":"AWBcmvLYRqXmo6ccrqn1","_score":1,"_source":{"type":"Feature","geometry":{"type":"Point","coordinates":[3.03388029976,50.6144906768]},"properties":{"name":"Lille CHR","UICIBNR":8710930,"abkuerzung":"","countryCode":"FR"}}}
{"_index":"bahnhoefefr","_type":"bahnhoffr","_id":"AWBcmvLYRqXmo6ccrqn-","_score":1,"_source":{"type":"Feature","geometry":{"type":"Point","coordinates":[2.45992179718,48.8967504288]},"properties":{"name":"Noisy-le-Sec","UICIBNR":8711321,"abkuerzung":"","countryCode":"FR"}}}
{"_index":"bahnhoefefr","_type":"bahnhoffr","_id":"AWBcmvLZRqXmo6ccrqoF","_score":1,"_source":{"type":"Feature","geometry":{"type":"Point","coordinates":[2.48919106482,48.8542005709]},"properties":{"name":"Val-de-Fontenay","UICIBNR":8711371,"abkuerzung":"","countryCode":"FR"}}}
{"_index":"bahnhoefefr","_type":"bahnhoffr","_id":"AWBcmvLZRqXmo6ccrqoG","_score":1,"_source":{"type":"Feature","geometry":{"type":"Point","coordinates":[2.49408632153,48.8387348274]},"properties":{"name":"Nogent-Le Perreux","UICIBNR":8711374,"abkuerzung":"","countryCode":"FR"}}}
{"_index":"bahnhoefefr","_type":"bahnhoffr","_id":"AWBcmvLZRqXmo6ccrqoH","_score":1,"_source":{"type":"Feature","geometry":{"type":"Point","coordinates":[2.51179173544,48.8248159046]},"properties":{"name":"Les Boullereaux-Champigny","UICIBNR":8711377,"abkuerzung":"","countryCode":"FR"}}}
{"_index":"bahnhoefefr","_type":"bahnhoffr","_id":"AWBcmvLZRqXmo6ccrqoQ","_score":1,"_source":{"type":"Feature","geometry":{"type":"Point","coordinates":[2.50696026173,48.8205190806]},"properties":{"name":"Le Plant-Champigny","UICIBNR":8711434,"abkuerzung":"","countryCode":"FR"}}}
{"_index":"bahnhoefefr","_type":"bahnhoffr","_id":"AWBcmvLZRqXmo6ccrqoS","_score":1,"_source":{"type":"Feature","geometry":{"type":"Point","coordinates":[2.50769642038,48.7716145325]},"properties":{"name":"Sucy-Bonneuil","UICIBNR":8711441,"abkuerzung":"","countryCode":"FR"}}}
{"_index":"bahnhoefefr","_type":"bahnhoffr","_id":"AWBcmvLZRqXmo6ccrqoW","_score":1,"_source":{"type":"Feature","geometry":{"type":"Point","coordinates":[2.72865979645,48.7453217854]},"properties":{"name":"Gretz-Armainvilliers","UICIBNR":8711601,"abkuerzung":"","countryCode":"FR"}}}
{"_index":"bahnhoefefr","_type":"bahnhoffr","_id":"AWBcmvLZRqXmo6ccrqoZ","_score":1,"_source":{"type":"Feature","geometry":{"type":"Point","coordinates":[2.61732372285,48.8064700981]},"properties":{"name":"Émerainville-Pontault-Combault","UICIBNR":8711604,"abkuerzung":"","countryCode":"FR"}}}
{"_index":"bahnhoefefr","_type":"bahnhoffr","_id":"AWBcmvLZRqXmo6ccrqob","_score":1,"_source":{"type":"Feature","geometry":{"type":"Point","coordinates":[2.88896582942,48.6136878752]},"properties":{"name":"Mormant","UICIBNR":8711608,"abkuerzung":"","countryCode":"FR"}}}
{"_index":"bahnhoefefr","_type":"bahnhoffr","_id":"AWBcmvLZRqXmo6ccrqof","_score":1,"_source":{"type":"Feature","geometry":{"type":"Point","coordinates":[3.1469514875,48.5362970666]},"properties":{"name":"Maison-Rouge-en-Brie","UICIBNR":8711612,"abkuerzung":"","countryCode":"FR"}}}
{"_index":"bahnhoefefr","_type":"bahnhoffr","_id":"AWBcmvLZRqXmo6ccrqoh","_score":1,"_source":{"type":"Feature","geometry":{"type":"Point","coordinates":[3.29462254439,48.4725062805]},"properties":{"name":"Flamboin-Gouaix","UICIBNR":8711614,"abkuerzung":"","countryCode":"FR"}}}
{"_index":"bahnhoefefr","_type":"bahnhoffr","_id":"AWBcmvLZRqXmo6ccrqoi","_score":1,"_source":{"type":"Feature","geometry":{"type":"Point","coordinates":[3.3030737476,48.5556167609]},"properties":{"name":"Provins","UICIBNR":8711616,"abkuerzung":"","countryCode":"FR"}}}
{"_index":"bahnhoefefr","_type":"bahnhoffr","_id":"AWBcmvLZRqXmo6ccrqoj","_score":1,"_source":{"type":"Feature","geometry":{"type":"Point","coordinates":[3.25570773393,48.5293365002]},"properties":{"name":"Ste-Colombe-Septveilles","UICIBNR":8711617,"abkuerzung":"","countryCode":"FR"}}}
{"_index":"bahnhoefefr","_type":"bahnhoffr","_id":"AWBcmvLZRqXmo6ccrqot","_score":1,"_source":{"type":"Feature","geometry":{"type":"Point","coordinates":[3.08196720084,48.8077192922]},"properties":{"name":"Coulommiers","UICIBNR":8711630,"abkuerzung":"","countryCode":"FR"}}}
{"_index":"bahnhoefefr","_type":"bahnhoffr","_id":"AWBcmvLZRqXmo6ccrqoy","_score":1,"_source":{"type":"Feature","geometry":{"type":"Point","coordinates":[3.27357325318,48.7907093614]},"properties":{"name":"Jouy-sur-Morin-Le Marais","UICIBNR":8711638,"abkuerzung":"","countryCode":"FR"}}}
{"_index":"bahnhoefefr","_type":"bahnhoffr","_id":"AWBcmvLZRqXmo6ccrqo2","_score":1,"_source":{"type":"Feature","geometry":{"type":"Point","coordinates":[2.94947884992,48.9601910563]},"properties":{"name":"Trilport","UICIBNR":8711649,"abkuerzung":"","countryCode":"FR"}}}
{"_index":"bahnhoefefr","_type":"bahnhoffr","_id":"AWBcmvLZRqXmo6ccrqpH","_score":1,"_source":{"type":"Feature","geometry":{"type":"Point","coordinates":[2.85423876003,48.8826831097]},"properties":{"name":"Couilly-St-Germain","UICIBNR":8711673,"abkuerzung":"","countryCode":"FR"}}}
{"_index":"bahnhoefefr","_type":"bahnhoffr","_id":"AWBcmvLZRqXmo6ccrqpM","_score":1,"_source":{"type":"Feature","geometry":{"type":"Point","coordinates":[4.35522548855,48.9321991954]},"properties":{"name":"Coolus","UICIBNR":8711775,"abkuerzung":"","countryCode":"FR"}}}
{"_index":"bahnhoefefr","_type":"bahnhoffr","_id":"AWBcmvLZRqXmo6ccrqpP","_score":1,"_source":{"type":"Feature","geometry":{"type":"Point","coordinates":[4.02686290846,48.3352409538]},"properties":{"name":"Barberey-St-Sulpice","UICIBNR":8711805,"abkuerzung":"","countryCode":"FR"}}}
{"_index":"bahnhoefefr","_type":"bahnhoffr","_id":"AWBcmvLZRqXmo6ccrqpT","_score":1,"_source":{"type":"Feature","geometry":{"type":"Point","coordinates":[3.78600316992,48.5050242284]},"properties":{"name":"Maizières-la-Grande-Paroisse","UICIBNR":8711814,"abkuerzung":"","countryCode":"FR"}}}
{"_index":"bahnhoefefr","_type":"bahnhoffr","_id":"AWBcmvLZRqXmo6ccrqpZ","_score":1,"_source":{"type":"Feature","geometry":{"type":"Point","coordinates":[4.46728626891,48.2402807036]},"properties":{"name":"Vendeuvre (Aube)","UICIBNR":8711825,"abkuerzung":"","countryCode":"FR"}}}
{"_index":"bahnhoefefr","_type":"bahnhoffr","_id":"AWBcmvLZRqXmo6ccrqpa","_score":1,"_source":{"type":"Feature","geometry":{"type":"Point","coordinates":[4.58312884076,48.2846444753]},"properties":{"name":"Jessains","UICIBNR":8711827,"abkuerzung":"","countryCode":"FR"}}}
{"_index":"bahnhoefefr","_type":"bahnhoffr","_id":"AWBcmvLZRqXmo6ccrqpi","_score":1,"_source":{"type":"Feature","geometry":{"type":"Point","coordinates":[4.38435200174,48.0730932855]},"properties":{"name":"Polisot","UICIBNR":8711850,"abkuerzung":"","countryCode":"FR"}}}
{"_index":"bahnhoefefr","_type":"bahnhoffr","_id":"AWBcmvLZRqXmo6ccrqpx","_score":1,"_source":{"type":"Feature","geometry":{"type":"Point","coordinates":[5.79109687597,48.6792286336]},"properties":{"name":"Foug","UICIBNR":8714103,"abkuerzung":"","countryCode":"FR"}}}
{"_index":"bahnhoefefr","_type":"bahnhoffr","_id":"AWBcmvLaRqXmo6ccrqp8","_score":1,"_source":{"type":"Feature","geometry":{"type":"Point","coordinates":[6.45013361183,48.5600845887]},"properties":{"name":"Mont-sur-Meurthe","UICIBNR":8714114,"abkuerzung":"","countryCode":"FR"}}}
{"_index":"bahnhoefefr","_type":"bahnhoffr","_id":"AWBcmvLaRqXmo6ccrqp_","_score":1,"_source":{"type":"Feature","geometry":{"type":"Point","coordinates":[6.32286863279,48.4680060652]},"properties":{"name":"Bayon","UICIBNR":8714121,"abkuerzung":"","countryCode":"FR"}}}
{"_index":"bahnhoefefr","_type":"bahnhoffr","_id":"AWBcmvLaRqXmo6ccrqqF","_score":1,"_source":{"type":"Feature","geometry":{"type":"Point","coordinates":[6.69582723526,48.4913424888]},"properties":{"name":"Azerailles","UICIBNR":8714140,"abkuerzung":"","countryCode":"FR"}}}
{"_index":"bahnhoefefr","_type":"bahnhoffr","_id":"AWBcmvLaRqXmo6ccrqqK","_score":1,"_source":{"type":"Feature","geometry":{"type":"Point","coordinates":[6.16994609279,48.6215475524]},"properties":{"name":"Ludres","UICIBNR":8714148,"abkuerzung":"","countryCode":"FR"}}}
{"_index":"bahnhoefefr","_type":"bahnhoffr","_id":"AWBcmvLaRqXmo6ccrqqN","_score":1,"_source":{"type":"Feature","geometry":{"type":"Point","coordinates":[6.09953485241,48.6135463036]},"properties":{"name":"Chaligny-Neuves-Maisons","UICIBNR":8714151,"abkuerzung":"","countryCode":"FR"}}}
{"_index":"bahnhoefefr","_type":"bahnhoffr","_id":"AWBcmvLaRqXmo6ccrqqR","_score":1,"_source":{"type":"Feature","geometry":{"type":"Point","coordinates":[6.12430206153,48.5484506108]},"properties":{"name":"Pierreville","UICIBNR":8714155,"abkuerzung":"","countryCode":"FR"}}}
{"_index":"bahnhoefefr","_type":"bahnhoffr","_id":"AWBcmvLaRqXmo6ccrqqX","_score":1,"_source":{"type":"Feature","geometry":{"type":"Point","coordinates":[6.12631506744,48.3978290594]},"properties":{"name":"Diarville","UICIBNR":8714164,"abkuerzung":"","countryCode":"FR"}}}
{"_index":"bahnhoefefr","_type":"bahnhoffr","_id":"AWBcmvLaRqXmo6ccrqqa","_score":1,"_source":{"type":"Feature","geometry":{"type":"Point","coordinates":[5.84005281384,48.5336127082]},"properties":{"name":"Barisey-la-Côte","UICIBNR":8714175,"abkuerzung":"","countryCode":"FR"}}}
{"_index":"bahnhoefefr","_type":"bahnhoffr","_id":"AWBcmvLaRqXmo6ccrqqb","_score":1,"_source":{"type":"Feature","geometry":{"type":"Point","coordinates":[6.13083777088,48.7732068845]},"properties":{"name":"Pompey","UICIBNR":8714178,"abkuerzung":"","countryCode":"FR"}}}
{"_index":"bahnhoefefr","_type":"bahnhoffr","_id":"AWBcmvLaRqXmo6ccrqqg","_score":1,"_source":{"type":"Feature","geometry":{"type":"Point","coordinates":[5.13398630271,48.1095595141]},"properties":{"name":"Chaumont","UICIBNR":8714200,"abkuerzung":"","countryCode":"FR"}}}
{"_index":"bahnhoefefr","_type":"bahnhoffr","_id":"AWBcmvLaRqXmo6ccrqqy","_score":1,"_source":{"type":"Feature","geometry":{"type":"Point","coordinates":[5.50580897991,47.9121155014]},"properties":{"name":"Andilly","UICIBNR":8714236,"abkuerzung":"","countryCode":"FR"}}}
{"_index":"bahnhoefefr","_type":"bahnhoffr","_id":"AWBcmvLaRqXmo6ccrqqz","_score":1,"_source":{"type":"Feature","geometry":{"type":"Point","coordinates":[5.5948507456,48.0540025523]},"properties":{"name":"Merrey (Haute-Marne)","UICIBNR":8714240,"abkuerzung":"","countryCode":"FR"}}}
{"_index":"bahnhoefefr","_type":"bahnhoffr","_id":"AWBcmvLaRqXmo6ccrqq2","_score":1,"_source":{"type":"Feature","geometry":{"type":"Point","coordinates":[4.87964999919,47.9799658546]},"properties":{"name":"Latrecey","UICIBNR":8714251,"abkuerzung":"","countryCode":"FR"}}}
{"_index":"bahnhoefefr","_type":"bahnhoffr","_id":"AWBcmvLaRqXmo6ccrqq5","_score":1,"_source":{"type":"Feature","geometry":{"type":"Point","coordinates":[4.57159457074,47.8701956501]},"properties":{"name":"Châtillon-sur-Seine","UICIBNR":8714255,"abkuerzung":"","countryCode":"FR"}}}
{"_index":"bahnhoefefr","_type":"bahnhoffr","_id":"AWBcmvLaRqXmo6ccrqq6","_score":1,"_source":{"type":"Feature","geometry":{"type":"Point","coordinates":[4.54804455019,47.8732533938]},"properties":{"name":"Ste-Colombe-sur-Seine","UICIBNR":8714256,"abkuerzung":"","countryCode":"FR"}}}
{"_index":"bahnhoefefr","_type":"bahnhoffr","_id":"AWBcmvLaRqXmo6ccrqrD","_score":1,"_source":{"type":"Feature","geometry":{"type":"Point","coordinates":[5.20372753944,47.4878733849]},"properties":{"name":"Lux","UICIBNR":8714277,"abkuerzung":"","countryCode":"FR"}}}
{"_index":"bahnhoefefr","_type":"bahnhoffr","_id":"AWBcmvLaRqXmo6ccrqrE","_score":1,"_source":{"type":"Feature","geometry":{"type":"Point","coordinates":[5.17044588759,47.5110823344]},"properties":{"name":"Tilchâtel","UICIBNR":8714278,"abkuerzung":"","countryCode":"FR"}}}
{"_index":"bahnhoefefr","_type":"bahnhoffr","_id":"AWBcmvLaRqXmo6ccrqrG","_score":1,"_source":{"type":"Feature","geometry":{"type":"Point","coordinates":[4.96927318717,47.6865366465]},"properties":{"name":"Poinson-Beneuvre","UICIBNR":8714282,"abkuerzung":"","countryCode":"FR"}}}
{"_index":"bahnhoefefr","_type":"bahnhoffr","_id":"AWBcmvLaRqXmo6ccrqrM","_score":1,"_source":{"type":"Feature","geometry":{"type":"Point","coordinates":[6.44126870858,48.1779619872]},"properties":{"name":"Épinal","UICIBNR":8714400,"abkuerzung":"","countryCode":"FR"}}}
{"_index":"bahnhoefefr","_type":"bahnhoffr","_id":"AWBcmvLaRqXmo6ccrqrP","_score":1,"_source":{"type":"Feature","geometry":{"type":"Point","coordinates":[6.6725133897,48.1728934865]},"properties":{"name":"Lépanges","UICIBNR":8714404,"abkuerzung":"","countryCode":"FR"}}}
{"_index":"bahnhoefefr","_type":"bahnhoffr","_id":"AWBcmvLaRqXmo6ccrqrQ","_score":1,"_source":{"type":"Feature","geometry":{"type":"Point","coordinates":[6.30173337301,48.3786852957]},"properties":{"name":"Charmes (Vosges)","UICIBNR":8714405,"abkuerzung":"","countryCode":"FR"}}}
{"_index":"bahnhoefefr","_type":"bahnhoffr","_id":"AWBcmvLaRqXmo6ccrqrR","_score":1,"_source":{"type":"Feature","geometry":{"type":"Point","coordinates":[6.33574269988,48.3432921635]},"properties":{"name":"Vincey","UICIBNR":8714406,"abkuerzung":"","countryCode":"FR"}}}
{"_index":"bahnhoefefr","_type":"bahnhoffr","_id":"AWBcmvLaRqXmo6ccrqrY","_score":1,"_source":{"type":"Feature","geometry":{"type":"Point","coordinates":[6.71923462143,48.2047300911]},"properties":{"name":"Bruyères (Vosges)","UICIBNR":8714415,"abkuerzung":"","countryCode":"FR"}}}
{"_index":"bahnhoefefr","_type":"bahnhoffr","_id":"AWBcmvLaRqXmo6ccrqrb","_score":1,"_source":{"type":"Feature","geometry":{"type":"Point","coordinates":[6.87829474718,48.1985369552]},"properties":{"name":"Corcieux-Vanémont","UICIBNR":8714419,"abkuerzung":"","countryCode":"FR"}}}
{"_index":"bahnhoefefr","_type":"bahnhoffr","_id":"AWBcmvLaRqXmo6ccrqrg","_score":1,"_source":{"type":"Feature","geometry":{"type":"Point","coordinates":[5.82563094643,48.1088363861]},"properties":{"name":"Martigny-les-Bains","UICIBNR":8714429,"abkuerzung":"","countryCode":"FR"}}}
{"_index":"bahnhoefefr","_type":"bahnhoffr","_id":"AWBcmvLaRqXmo6ccrqrl","_score":1,"_source":{"type":"Feature","geometry":{"type":"Point","coordinates":[5.92147551423,48.3104538827]},"properties":{"name":"Gironcourt-Houécourt","UICIBNR":8714435,"abkuerzung":"","countryCode":"FR"}}}
{"_index":"bahnhoefefr","_type":"bahnhoffr","_id":"AWBcmvLbRqXmo6ccrqrz","_score":1,"_source":{"type":"Feature","geometry":{"type":"Point","coordinates":[6.95078890021,48.1904112117]},"properties":{"name":"Anould","UICIBNR":8714487,"abkuerzung":"","countryCode":"FR"}}}
{"_index":"bahnhoefefr","_type":"bahnhoffr","_id":"AWBcmvLbRqXmo6ccrqsA","_score":1,"_source":{"type":"Feature","geometry":{"type":"Point","coordinates":[3.89185646358,49.2782138762]},"properties":{"name":"Muizon","UICIBNR":8717129,"abkuerzung":"","countryCode":"FR"}}}
{"_index":"bahnhoefefr","_type":"bahnhoffr","_id":"AWBcmvLbRqXmo6ccrqsI","_score":1,"_source":{"type":"Feature","geometry":{"type":"Point","coordinates":[4.17449561353,49.3613746745]},"properties":{"name":"Bazancourt","UICIBNR":8717146,"abkuerzung":"","countryCode":"FR"}}}
{"_index":"bahnhoefefr","_type":"bahnhoffr","_id":"AWBcmvLbRqXmo6ccrqsK","_score":1,"_source":{"type":"Feature","geometry":{"type":"Point","coordinates":[3.64173253987,49.0791242148]},"properties":{"name":"Dormans","UICIBNR":8717151,"abkuerzung":"","countryCode":"FR"}}}
{"_index":"bahnhoefefr","_type":"bahnhoffr","_id":"AWBcmvLbRqXmo6ccrqsP","_score":1,"_source":{"type":"Feature","geometry":{"type":"Point","coordinates":[4.04090551918,49.1664791683]},"properties":{"name":"Rilly-la-Montagne","UICIBNR":8717159,"abkuerzung":"","countryCode":"FR"}}}
{"_index":"bahnhoefefr","_type":"bahnhoffr","_id":"AWBcmvLbRqXmo6ccrqsT","_score":1,"_source":{"type":"Feature","geometry":{"type":"Point","coordinates":[4.25699639614,49.1511314864]},"properties":{"name":"Sept-Saulx","UICIBNR":8717164,"abkuerzung":"","countryCode":"FR"}}}
{"_index":"bahnhoefefr","_type":"bahnhoffr","_id":"AWBcmvLbRqXmo6ccrqsX","_score":1,"_source":{"type":"Feature","geometry":{"type":"Point","coordinates":[3.96133573206,49.4344030417]},"properties":{"name":"Guignicourt (Aisne)","UICIBNR":8717173,"abkuerzung":"","countryCode":"FR"}}}
{"_index":"bahnhoefefr","_type":"bahnhoffr","_id":"AWBcmvLbRqXmo6ccrqsb","_score":1,"_source":{"type":"Feature","geometry":{"type":"Point","coordinates":[4.268390666,49.3134022388]},"properties":{"name":"St-Masmes","UICIBNR":8717181,"abkuerzung":"","countryCode":"FR"}}}
{"_index":"bahnhoefefr","_type":"bahnhoffr","_id":"AWBcmvLbRqXmo6ccrqsq","_score":1,"_source":{"type":"Feature","geometry":{"type":"Point","coordinates":[4.7055749138,50.0119694058]},"properties":{"name":"Haybes","UICIBNR":8717210,"abkuerzung":"","countryCode":"FR"}}}
{"_index":"bahnhoefefr","_type":"bahnhoffr","_id":"AWBcmvLbRqXmo6ccrqsu","_score":1,"_source":{"type":"Feature","geometry":{"type":"Point","coordinates":[4.7326726017,49.7530680176]},"properties":{"name":"Mohon","UICIBNR":8717215,"abkuerzung":"","countryCode":"FR"}}}
{"_index":"bahnhoefefr","_type":"bahnhoffr","_id":"AWBcmvLbRqXmo6ccrqs1","_score":1,"_source":{"type":"Feature","geometry":{"type":"Point","coordinates":[4.47464531041,49.523819737]},"properties":{"name":"Amagne-Lucquy","UICIBNR":8717226,"abkuerzung":"","countryCode":"FR"}}}
{"_index":"bahnhoefefr","_type":"bahnhoffr","_id":"AWBcmvLbRqXmo6ccrqtB","_score":1,"_source":{"type":"Feature","geometry":{"type":"Point","coordinates":[4.33539159787,49.7703600401]},"properties":{"name":"Liart","UICIBNR":8717254,"abkuerzung":"","countryCode":"FR"}}}
{"_index":"bahnhoefefr","_type":"bahnhoffr","_id":"AWBcmvLbRqXmo6ccrqtF","_score":1,"_source":{"type":"Feature","geometry":{"type":"Point","coordinates":[4.74400041252,49.3060590959]},"properties":{"name":"Challerange","UICIBNR":8717263,"abkuerzung":"","countryCode":"FR"}}}
{"_index":"bahnhoefefr","_type":"bahnhoffr","_id":"AWBcmvLbRqXmo6ccrqte","_score":1,"_source":{"type":"Feature","geometry":{"type":"Point","coordinates":[4.58415799734,48.5968004724]},"properties":{"name":"Gigny-Brandonvillers","UICIBNR":8717477,"abkuerzung":"","countryCode":"FR"}}}
{"_index":"bahnhoefefr","_type":"bahnhoffr","_id":"AWBcmvLbRqXmo6ccrqtj","_score":1,"_source":{"type":"Feature","geometry":{"type":"Point","coordinates":[4.95107937442,48.6417537514]},"properties":{"name":"St-Dizier","UICIBNR":8717500,"abkuerzung":"","countryCode":"FR"}}}
{"_index":"bahnhoefefr","_type":"bahnhoffr","_id":"AWBcmvLbRqXmo6ccrqtk","_score":1,"_source":{"type":"Feature","geometry":{"type":"Point","coordinates":[4.98583551165,48.8240265132]},"properties":{"name":"Revigny","UICIBNR":8717501,"abkuerzung":"","countryCode":"FR"}}}
{"_index":"bahnhoefefr","_type":"bahnhoffr","_id":"AWBcmvLbRqXmo6ccrqtn","_score":1,"_source":{"type":"Feature","geometry":{"type":"Point","coordinates":[5.15613403123,48.4007314588]},"properties":{"name":"Fronville-St-Urbain","UICIBNR":8717507,"abkuerzung":"","countryCode":"FR"}}}
{"_index":"bahnhoefefr","_type":"bahnhoffr","_id":"AWBcmvLbRqXmo6ccrqtv","_score":1,"_source":{"type":"Feature","geometry":{"type":"Point","coordinates":[5.53868264124,48.7970669601]},"properties":{"name":"Lérouville","UICIBNR":8717524,"abkuerzung":"","countryCode":"FR"}}}
{"_index":"bahnhoefefr","_type":"bahnhoffr","_id":"AWBcmvLcRqXmo6ccrqty","_score":1,"_source":{"type":"Feature","geometry":{"type":"Point","coordinates":[5.40657513608,48.7511487374]},"properties":{"name":"Ernécourt-Loxéville","UICIBNR":8717529,"abkuerzung":"","countryCode":"FR"}}}
{"_index":"bahnhoefefr","_type":"bahnhoffr","_id":"AWBcmvLcRqXmo6ccrqt0","_score":1,"_source":{"type":"Feature","geometry":{"type":"Point","coordinates":[5.35599042655,48.6443468931]},"properties":{"name":"Menaucourt","UICIBNR":8717536,"abkuerzung":"","countryCode":"FR"}}}
{"_index":"bahnhoefefr","_type":"bahnhoffr","_id":"AWBcmvLcRqXmo6ccrqt2","_score":1,"_source":{"type":"Feature","geometry":{"type":"Point","coordinates":[5.40165301296,48.5999115698]},"properties":{"name":"Laneuville-St-Joire","UICIBNR":8717549,"abkuerzung":"","countryCode":"FR"}}}
{"_index":"bahnhoefefr","_type":"bahnhoffr","_id":"AWBcmvLcRqXmo6ccrqt3","_score":1,"_source":{"type":"Feature","geometry":{"type":"Point","coordinates":[5.40998468945,49.0706183196]},"properties":{"name":"Ancemont","UICIBNR":8717565,"abkuerzung":"","countryCode":"FR"}}}
{"_index":"bahnhoefefr","_type":"bahnhoffr","_id":"AWBcmvLcRqXmo6ccrqt6","_score":1,"_source":{"type":"Feature","geometry":{"type":"Point","coordinates":[5.00156257169,49.1060214692]},"properties":{"name":"Les Islettes","UICIBNR":8717571,"abkuerzung":"","countryCode":"FR"}}}
{"_index":"bahnhoefefr","_type":"bahnhoffr","_id":"AWBcmvLcRqXmo6ccrquA","_score":1,"_source":{"type":"Feature","geometry":{"type":"Point","coordinates":[5.71106853171,49.1721185226]},"properties":{"name":"Buzy (Meuse)","UICIBNR":8717580,"abkuerzung":"","countryCode":"FR"}}}
{"_index":"bahnhoefefr","_type":"bahnhoffr","_id":"AWBcmvLcRqXmo6ccrquB","_score":1,"_source":{"type":"Feature","geometry":{"type":"Point","coordinates":[5.74144392339,48.8432900564]},"properties":{"name":"Rambucourt-Bouconville","UICIBNR":8717581,"abkuerzung":"","countryCode":"FR"}}}
{"_index":"bahnhoefefr","_type":"bahnhoffr","_id":"AWBcmvLcRqXmo6ccrquC","_score":1,"_source":{"type":"Feature","geometry":{"type":"Point","coordinates":[5.73391908063,48.6967031948]},"properties":{"name":"Pagny-sur-Meuse","UICIBNR":8717582,"abkuerzung":"","countryCode":"FR"}}}
{"_index":"bahnhoefefr","_type":"bahnhoffr","_id":"AWBcmvLcRqXmo6ccrquH","_score":1,"_source":{"type":"Feature","geometry":{"type":"Point","coordinates":[7.31445061829,47.7199601325]},"properties":{"name":"Brunstatt","UICIBNR":8718103,"abkuerzung":"","countryCode":"FR"}}}
{"_index":"bahnhoefefr","_type":"bahnhoffr","_id":"AWBcmvLcRqXmo6ccrquJ","_score":1,"_source":{"type":"Feature","geometry":{"type":"Point","coordinates":[7.2641869581,47.6550439561]},"properties":{"name":"Tagolsheim","UICIBNR":8718105,"abkuerzung":"","countryCode":"FR"}}}
{"_index":"bahnhoefefr","_type":"bahnhoffr","_id":"AWBcmvLcRqXmo6ccrquM","_score":1,"_source":{"type":"Feature","geometry":{"type":"Point","coordinates":[7.05637561139,47.6312082541]},"properties":{"name":"Valdieu","UICIBNR":8718108,"abkuerzung":"","countryCode":"FR"}}}
{"_index":"bahnhoefefr","_type":"bahnhoffr","_id":"AWBcmvLcRqXmo6ccrquR","_score":1,"_source":{"type":"Feature","geometry":{"type":"Point","coordinates":[7.34694339731,48.0731722815]},"properties":{"name":"Colmar","UICIBNR":8718201,"abkuerzung":"","countryCode":"FR"}}}
{"_index":"bahnhoefefr","_type":"bahnhoffr","_id":"AWBcmvLcRqXmo6ccrquf","_score":1,"_source":{"type":"Feature","geometry":{"type":"Point","coordinates":[7.23917580083,47.6273708741]},"properties":{"name":"Altkirch","UICIBNR":8718223,"abkuerzung":"","countryCode":"FR"}}}
{"_index":"bahnhoefefr","_type":"bahnhoffr","_id":"AWBcmvLcRqXmo6ccrqui","_score":1,"_source":{"type":"Feature","geometry":{"type":"Point","coordinates":[7.32082594806,48.0175806946]},"properties":{"name":"Herrlisheim-près-Colmar","UICIBNR":8718232,"abkuerzung":"","countryCode":"FR"}}}
{"_index":"bahnhoefefr","_type":"bahnhoffr","_id":"AWBcmvLcRqXmo6ccrqum","_score":1,"_source":{"type":"Feature","geometry":{"type":"Point","coordinates":[7.23370402229,48.0579222205]},"properties":{"name":"Walbach","UICIBNR":8718236,"abkuerzung":"","countryCode":"FR"}}}
{"_index":"bahnhoefefr","_type":"bahnhoffr","_id":"AWBcmvLcRqXmo6ccrqun","_score":1,"_source":{"type":"Feature","geometry":{"type":"Point","coordinates":[7.20978269041,48.0461365615]},"properties":{"name":"Wihr-au-Val-Soultzbach-les-Bains","UICIBNR":8718237,"abkuerzung":"","countryCode":"FR"}}}
{"_index":"bahnhoefefr","_type":"bahnhoffr","_id":"AWBcmvLcRqXmo6ccrquu","_score":1,"_source":{"type":"Feature","geometry":{"type":"Point","coordinates":[7.0782522335,47.8277058643]},"properties":{"name":"Bitschwiller (Haut-Rhin)","UICIBNR":8718257,"abkuerzung":"","countryCode":"FR"}}}
{"_index":"bahnhoefefr","_type":"bahnhoffr","_id":"AWBcmvLcRqXmo6ccrquv","_score":1,"_source":{"type":"Feature","geometry":{"type":"Point","coordinates":[7.06907793543,47.8428517157]},"properties":{"name":"Willer-sur-Thur","UICIBNR":8718258,"abkuerzung":"","countryCode":"FR"}}}
{"_index":"bahnhoefefr","_type":"bahnhoffr","_id":"AWBcmvLcRqXmo6ccrqu2","_score":1,"_source":{"type":"Feature","geometry":{"type":"Point","coordinates":[7.10429571151,48.0285486308]},"properties":{"name":"Breitenbach-Haut-Rhin","UICIBNR":8718265,"abkuerzung":"","countryCode":"FR"}}}
{"_index":"bahnhoefefr","_type":"bahnhoffr","_id":"AWBcmvLcRqXmo6ccrqu7","_score":1,"_source":{"type":"Feature","geometry":{"type":"Point","coordinates":[7.2674896613,47.8566331056]},"properties":{"name":"Bollwiller","UICIBNR":8718270,"abkuerzung":"","countryCode":"FR"}}}
{"_index":"bahnhoefefr","_type":"bahnhoffr","_id":"AWBcmvLcRqXmo6ccrqvD","_score":1,"_source":{"type":"Feature","geometry":{"type":"Point","coordinates":[7.07347671722,48.0135703614]},"properties":{"name":"Metzeral","UICIBNR":8718281,"abkuerzung":"","countryCode":"FR"}}}
{"_index":"bahnhoefefr","_type":"bahnhoffr","_id":"AWBcmvLcRqXmo6ccrqvQ","_score":1,"_source":{"type":"Feature","geometry":{"type":"Point","coordinates":[7.02567409424,47.6177782959]},"properties":{"name":"Montreux-Vieux","UICIBNR":8718427,"abkuerzung":"","countryCode":"FR"}}}
{"_index":"bahnhoefefr","_type":"bahnhoffr","_id":"AWBcmvLcRqXmo6ccrqvS","_score":1,"_source":{"type":"Feature","geometry":{"type":"Point","coordinates":[6.83814853962,47.4880331542]},"properties":{"name":"Audincourt","UICIBNR":8718435,"abkuerzung":"","countryCode":"FR"}}}
{"_index":"bahnhoefefr","_type":"bahnhoffr","_id":"AWBcmvLcRqXmo6ccrqvT","_score":1,"_source":{"type":"Feature","geometry":{"type":"Point","coordinates":[6.88987123812,47.5889484225]},"properties":{"name":"Meroux","UICIBNR":8718440,"abkuerzung":"","countryCode":"FR"}}}
{"_index":"bahnhoefefr","_type":"bahnhoffr","_id":"AWBcmvLcRqXmo6ccrqve","_score":1,"_source":{"type":"Feature","geometry":{"type":"Point","coordinates":[6.76664618272,47.3831893301]},"properties":{"name":"Pont-de-Roide","UICIBNR":8718482,"abkuerzung":"","countryCode":"FR"}}}
{"_index":"bahnhoefefr","_type":"bahnhoffr","_id":"AWBcmvLcRqXmo6ccrqvk","_score":1,"_source":{"type":"Feature","geometry":{"type":"Point","coordinates":[5.98713979533,47.8131660602]},"properties":{"name":"Montureux-lès-Baulay","UICIBNR":8718528,"abkuerzung":"","countryCode":"FR"}}}
{"_index":"bahnhoefefr","_type":"bahnhoffr","_id":"AWBcmvLcRqXmo6ccrqvl","_score":1,"_source":{"type":"Feature","geometry":{"type":"Point","coordinates":[6.62335891507,47.6991120212]},"properties":{"name":"Ronchamp","UICIBNR":8718531,"abkuerzung":"","countryCode":"FR"}}}
{"_index":"bahnhoefefr","_type":"bahnhoffr","_id":"AWBcmvLcRqXmo6ccrqvq","_score":1,"_source":{"type":"Feature","geometry":{"type":"Point","coordinates":[5.76253577313,47.5521997226]},"properties":{"name":"Seveux","UICIBNR":8718551,"abkuerzung":"","countryCode":"FR"}}}
{"_index":"bahnhoefefr","_type":"bahnhoffr","_id":"AWBcmvLdRqXmo6ccrqvx","_score":1,"_source":{"type":"Feature","geometry":{"type":"Point","coordinates":[6.4082121785,47.8881678688]},"properties":{"name":"Fougerolles","UICIBNR":8718568,"abkuerzung":"","countryCode":"FR"}}}
{"_index":"bahnhoefefr","_type":"bahnhoffr","_id":"AWBcmvLdRqXmo6ccrqv2","_score":1,"_source":{"type":"Feature","geometry":{"type":"Point","coordinates":[6.16395679078,49.2535273404]},"properties":{"name":"Hagondange","UICIBNR":8719111,"abkuerzung":"","countryCode":"FR"}}}
