{"_index":"bahnhoefemd","_type":"bahnhofmd","_id":"AWYZzkwTxpPIvaVA5CL_","_score":1,"_source":{"type":"Feature","geometry":{"type":"Point","coordinates":[28.860041,47.013247]},"properties":{"UICIBNR":2300000,"name":"Kishineu (Кишинэу)","abkuerzung":0,"countryCode":"MD"}}}
{"_index":"bahnhoefemd","_type":"bahnhofmd","_id":"AWYZzkwTxpPIvaVA5CMC","_score":1,"_source":{"type":"Feature","geometry":{"type":"Point","coordinates":[29.467221,46.884282]},"properties":{"UICIBNR":2300013,"name":"Severnaya (Северная)","abkuerzung":13,"countryCode":"MD"}}}
{"_index":"bahnhoefemd","_type":"bahnhofmd","_id":"AWYZzkwTxpPIvaVA5CMH","_score":1,"_source":{"type":"Feature","geometry":{"type":"Point","coordinates":[28.399658,47.217116]},"properties":{"UICIBNR":2300018,"name":" (Питушка)","abkuerzung":18,"countryCode":"MD"}}}
{"_index":"bahnhoefemd","_type":"bahnhofmd","_id":"AWYZzkwUxpPIvaVA5CML","_score":1,"_source":{"type":"Feature","geometry":{"type":"Point","coordinates":[27.760434,47.27411]},"properties":{"UICIBNR":2300023,"name":"Semeni (Семень)","abkuerzung":23,"countryCode":"MD"}}}
{"_index":"bahnhoefemd","_type":"bahnhofmd","_id":"AWYZzkwUxpPIvaVA5CMR","_score":1,"_source":{"type":"Feature","geometry":{"type":"Point","coordinates":[27.63319,48.442013]},"properties":{"UICIBNR":2300106,"name":"Verezhany (Вережаны)","abkuerzung":106,"countryCode":"MD"}}}
{"_index":"bahnhoefemd","_type":"bahnhofmd","_id":"AWYZzkwUxpPIvaVA5CMS","_score":1,"_source":{"type":"Feature","geometry":{"type":"Point","coordinates":[27.880726,47.856236]},"properties":{"UICIBNR":2300117,"name":"Pelinia (Пелиния)","abkuerzung":117,"countryCode":"MD"}}}
{"_index":"bahnhoefemd","_type":"bahnhofmd","_id":"AWYZzkwUxpPIvaVA5CMZ","_score":1,"_source":{"type":"Feature","geometry":{"type":"Point","coordinates":[28.936864,46.508637]},"properties":{"UICIBNR":2300537,"name":"Ivanovka (Ивановка)","abkuerzung":537,"countryCode":"MD"}}}
{"_index":"bahnhoefemd","_type":"bahnhofmd","_id":"AWYZzkwUxpPIvaVA5CMc","_score":1,"_source":{"type":"Feature","geometry":{"type":"Point","coordinates":[27.4934,48.2703]},"properties":{"UICIBNR":2300553,"name":"Rediul-Mare (Редиул-Маре)","abkuerzung":553,"countryCode":"MD"}}}
{"_index":"bahnhoefemd","_type":"bahnhofmd","_id":"AWYZzkwUxpPIvaVA5CMi","_score":1,"_source":{"type":"Feature","geometry":{"type":"Point","coordinates":[27.81962514,47.71866938]},"properties":{"UICIBNR":2300575,"name":"Reutsel (Рэуцел)","abkuerzung":575,"countryCode":"MD"}}}
{"_index":"bahnhoefemd","_type":"bahnhofmd","_id":"AWYZzkwUxpPIvaVA5CMo","_score":1,"_source":{"type":"Feature","geometry":{"type":"Point","coordinates":[27.7484,47.2873]},"properties":{"UICIBNR":2300582,"name":"Petreshty (Петрешты)","abkuerzung":582,"countryCode":"MD"}}}
{"_index":"bahnhoefemd","_type":"bahnhofmd","_id":"AWYZzkwUxpPIvaVA5CMr","_score":1,"_source":{"type":"Feature","geometry":{"type":"Point","coordinates":[28.085388,47.330242]},"properties":{"UICIBNR":2300585,"name":"Bakhmut (Бахмут)","abkuerzung":585,"countryCode":"MD"}}}
{"_index":"bahnhoefemd","_type":"bahnhofmd","_id":"AWYZzkwUxpPIvaVA5CMt","_score":1,"_source":{"type":"Feature","geometry":{"type":"Point","coordinates":[28.3344,47.2443]},"properties":{"UICIBNR":2300587,"name":"Kelerash (Кэлэрашь)","abkuerzung":587,"countryCode":"MD"}}}
{"_index":"bahnhoefemd","_type":"bahnhofmd","_id":"AWYZzkwUxpPIvaVA5CM4","_score":1,"_source":{"type":"Feature","geometry":{"type":"Point","coordinates":[28.89614,46.695514]},"properties":{"UICIBNR":2300606,"name":"Zlots (Злоць)","abkuerzung":606,"countryCode":"MD"}}}
{"_index":"bahnhoefemd","_type":"bahnhofmd","_id":"AWYZzkwVxpPIvaVA5CNM","_score":1,"_source":{"type":"Feature","geometry":{"type":"Point","coordinates":[29.332052,46.897921]},"properties":{"UICIBNR":2301555,"name":"Roshkan (Рошкань)","abkuerzung":1555,"countryCode":"MD"}}}
{"_index":"bahnhoefemd","_type":"bahnhofmd","_id":"AWYZzkwVxpPIvaVA5CNQ","_score":1,"_source":{"type":"Feature","geometry":{"type":"Point","coordinates":[27.84594297,47.27442847]},"properties":{"UICIBNR":2301562,"name":"Nikolaevka (Николаевка)","abkuerzung":1562,"countryCode":"MD"}}}
{"_index":"bahnhoefemd","_type":"bahnhofmd","_id":"AWYZzkwVxpPIvaVA5CNV","_score":1,"_source":{"type":"Feature","geometry":{"type":"Point","coordinates":[27.981102,47.338986]},"properties":{"UICIBNR":2301567,"name":"Bumbeta (Бумбэта)","abkuerzung":1567,"countryCode":"MD"}}}
{"_index":"bahnhoefemd","_type":"bahnhofmd","_id":"AWYZzkwVxpPIvaVA5CNX","_score":1,"_source":{"type":"Feature","geometry":{"type":"Point","coordinates":[27.527617,48.412225]},"properties":{"UICIBNR":2301569,"name":"Byrnovo (Бырново)","abkuerzung":1569,"countryCode":"MD"}}}
{"_index":"bahnhoefemd","_type":"bahnhofmd","_id":"AWYZzkwVxpPIvaVA5CNa","_score":1,"_source":{"type":"Feature","geometry":{"type":"Point","coordinates":[28.978814,46.932649]},"properties":{"UICIBNR":2301572,"name":"Synzhera (Сынжера)","abkuerzung":1572,"countryCode":"MD"}}}
{"_index":"bahnhoefemd","_type":"bahnhofmd","_id":"AWYZzkwVxpPIvaVA5CNb","_score":1,"_source":{"type":"Feature","geometry":{"type":"Point","coordinates":[28.69072616,47.12328979]},"properties":{"UICIBNR":2301573,"name":"Romashka (Ромашка)","abkuerzung":1573,"countryCode":"MD"}}}
{"_index":"bahnhoefemd","_type":"bahnhofmd","_id":"AWYZzkwVxpPIvaVA5CNg","_score":1,"_source":{"type":"Feature","geometry":{"type":"Point","coordinates":[28.963177,46.727628]},"properties":{"UICIBNR":2301579,"name":"Karbuna (Карбуна)","abkuerzung":1579,"countryCode":"MD"}}}
{"_index":"bahnhoefemd","_type":"bahnhofmd","_id":"AWYZzkwVxpPIvaVA5CNh","_score":1,"_source":{"type":"Feature","geometry":{"type":"Point","coordinates":[27.59809731,48.41237154]},"properties":{"UICIBNR":2301581,"name":"Gyrbovo (Гырбово)","abkuerzung":1581,"countryCode":"MD"}}}
{"_index":"bahnhoefemd","_type":"bahnhofmd","_id":"AWYZzkwTxpPIvaVA5CMF","_score":1,"_source":{"type":"Feature","geometry":{"type":"Point","coordinates":[27.892014,47.322905]},"properties":{"UICIBNR":2300016,"name":"o.p. 1646 km (о.п. 1646 км)","abkuerzung":16,"countryCode":"MD"}}}
{"_index":"bahnhoefemd","_type":"bahnhofmd","_id":"AWYZzkwTxpPIvaVA5CMI","_score":1,"_source":{"type":"Feature","geometry":{"type":"Point","coordinates":[28.736328,47.093394]},"properties":{"UICIBNR":2300019,"name":" (Плажа)","abkuerzung":19,"countryCode":"MD"}}}
{"_index":"bahnhoefemd","_type":"bahnhofmd","_id":"AWYZzkwUxpPIvaVA5CMO","_score":1,"_source":{"type":"Feature","geometry":{"type":"Point","coordinates":[27.764661,48.071832]},"properties":{"UICIBNR":2300100,"name":"о.p. 124 км (о.п. 124 км)","abkuerzung":100,"countryCode":"MD"}}}
{"_index":"bahnhoefemd","_type":"bahnhofmd","_id":"AWYZzkwUxpPIvaVA5CMT","_score":1,"_source":{"type":"Feature","geometry":{"type":"Point","coordinates":[27.802705,47.205734]},"properties":{"UICIBNR":2300145,"name":"Ungen (Унгень)","abkuerzung":145,"countryCode":"MD"}}}
{"_index":"bahnhoefemd","_type":"bahnhofmd","_id":"AWYZzkwUxpPIvaVA5CMV","_score":1,"_source":{"type":"Feature","geometry":{"type":"Point","coordinates":[29.015735,46.315751]},"properties":{"UICIBNR":2300461,"name":"Serpnevo-1 (Серпнево-1)","abkuerzung":461,"countryCode":"MD"}}}
{"_index":"bahnhoefemd","_type":"bahnhofmd","_id":"AWYZzkwUxpPIvaVA5CMb","_score":1,"_source":{"type":"Feature","geometry":{"type":"Point","coordinates":[27.484886,48.405592]},"properties":{"UICIBNR":2300551,"name":"Oknitsa (Окница)","abkuerzung":551,"countryCode":"MD"}}}
{"_index":"bahnhoefemd","_type":"bahnhofmd","_id":"AWYZzkwUxpPIvaVA5CMe","_score":1,"_source":{"type":"Feature","geometry":{"type":"Point","coordinates":[27.6469,48.1666]},"properties":{"UICIBNR":2300555,"name":"Tyrnovo (Тырново)","abkuerzung":555,"countryCode":"MD"}}}
{"_index":"bahnhoefemd","_type":"bahnhofmd","_id":"AWYZzkwUxpPIvaVA5CMv","_score":1,"_source":{"type":"Feature","geometry":{"type":"Point","coordinates":[28.61995339,47.1499469]},"properties":{"UICIBNR":2300589,"name":"Streshen (Стрэшень)","abkuerzung":589,"countryCode":"MD"}}}
{"_index":"bahnhoefemd","_type":"bahnhofmd","_id":"AWYZzkwUxpPIvaVA5CMz","_score":1,"_source":{"type":"Feature","geometry":{"type":"Point","coordinates":[29.057347,46.922622]},"properties":{"UICIBNR":2300593,"name":"Meren (Мерень)","abkuerzung":593,"countryCode":"MD"}}}
{"_index":"bahnhoefemd","_type":"bahnhofmd","_id":"AWYZzkwUxpPIvaVA5CM5","_score":1,"_source":{"type":"Feature","geometry":{"type":"Point","coordinates":[28.927391,46.536728]},"properties":{"UICIBNR":2300608,"name":"Chimishliya (Чимишлия)","abkuerzung":608,"countryCode":"MD"}}}
{"_index":"bahnhoefemd","_type":"bahnhofmd","_id":"AWYZzkwUxpPIvaVA5CM8","_score":1,"_source":{"type":"Feature","geometry":{"type":"Point","coordinates":[28.838188,46.075871]},"properties":{"UICIBNR":2300614,"name":"Chadyr-Lunga (Чадыр-Лунга)","abkuerzung":614,"countryCode":"MD"}}}
{"_index":"bahnhoefemd","_type":"bahnhofmd","_id":"AWYZzkwUxpPIvaVA5CM-","_score":1,"_source":{"type":"Feature","geometry":{"type":"Point","coordinates":[27.928,47.7858]},"properties":{"UICIBNR":2300620,"name":"Belts-Sloboziya (Бэлць-Слобозия)","abkuerzung":620,"countryCode":"MD"}}}
{"_index":"bahnhoefemd","_type":"bahnhofmd","_id":"AWYZzkwUxpPIvaVA5CNA","_score":1,"_source":{"type":"Feature","geometry":{"type":"Point","coordinates":[29.07669872,46.7000794]},"properties":{"UICIBNR":2301528,"name":" (Первомайск)","abkuerzung":1528,"countryCode":"MD"}}}
{"_index":"bahnhoefemd","_type":"bahnhofmd","_id":"AWYZzkwUxpPIvaVA5CND","_score":1,"_source":{"type":"Feature","geometry":{"type":"Point","coordinates":[29.000604,46.89161]},"properties":{"UICIBNR":2301534,"name":"Dobruzha (Добружа)","abkuerzung":1534,"countryCode":"MD"}}}
{"_index":"bahnhoefemd","_type":"bahnhofmd","_id":"AWYZzkwUxpPIvaVA5CNI","_score":1,"_source":{"type":"Feature","geometry":{"type":"Point","coordinates":[28.8283,47.0445]},"properties":{"UICIBNR":2301550,"name":"Visternichen (Вистерничень)","abkuerzung":1550,"countryCode":"MD"}}}
{"_index":"bahnhoefemd","_type":"bahnhofmd","_id":"AWYZzkwUxpPIvaVA5CNJ","_score":1,"_source":{"type":"Feature","geometry":{"type":"Point","coordinates":[27.745505,47.697426]},"properties":{"UICIBNR":2301551,"name":"Sovkhoz (Совхоз)","abkuerzung":1551,"countryCode":"MD"}}}
{"_index":"bahnhoefemd","_type":"bahnhofmd","_id":"AWYZzkwVxpPIvaVA5CNR","_score":1,"_source":{"type":"Feature","geometry":{"type":"Point","coordinates":[29.148037,46.91064]},"properties":{"UICIBNR":2301563,"name":"Zhemchug (Жемчуг)","abkuerzung":1563,"countryCode":"MD"}}}
{"_index":"bahnhoefemd","_type":"bahnhofmd","_id":"AWYZzkwVxpPIvaVA5CNf","_score":1,"_source":{"type":"Feature","geometry":{"type":"Point","coordinates":[27.5107,48.3787]},"properties":{"UICIBNR":2301577,"name":"o.p. 172 km (о.п. 172 км)","abkuerzung":1577,"countryCode":"MD"}}}
{"_index":"bahnhoefemd","_type":"bahnhofmd","_id":"AWYZzkwVxpPIvaVA5CNl","_score":1,"_source":{"type":"Feature","geometry":{"type":"Point","coordinates":[27.60632519,47.13894263]},"properties":{"UICIBNR":2301600,"name":"Yassy Socola (Яссы Сокола)","abkuerzung":1600,"countryCode":"MD"}}}
{"_index":"bahnhoefemd","_type":"bahnhofmd","_id":"AWYZzkwTxpPIvaVA5CMA","_score":1,"_source":{"type":"Feature","geometry":{"type":"Point","coordinates":[28.875611,46.997395]},"properties":{"UICIBNR":2300001,"name":"Kishineu Tsentr (Кишинэу Центр)","abkuerzung":1,"countryCode":"MD"}}}
{"_index":"bahnhoefemd","_type":"bahnhofmd","_id":"AWYZzkwTxpPIvaVA5CMB","_score":1,"_source":{"type":"Feature","geometry":{"type":"Point","coordinates":[29.449334,46.892392]},"properties":{"UICIBNR":2300012,"name":"Rzd 1503 km (Рзд 1503 км)","abkuerzung":12,"countryCode":"MD"}}}
{"_index":"bahnhoefemd","_type":"bahnhofmd","_id":"AWYZzkwTxpPIvaVA5CME","_score":1,"_source":{"type":"Feature","geometry":{"type":"Point","coordinates":[29.472724,46.850631]},"properties":{"UICIBNR":2300015,"name":"Bender-3 (Бендер-3)","abkuerzung":15,"countryCode":"MD"}}}
{"_index":"bahnhoefemd","_type":"bahnhofmd","_id":"AWYZzkwTxpPIvaVA5CMG","_score":1,"_source":{"type":"Feature","geometry":{"type":"Point","coordinates":[27.985332,47.344724]},"properties":{"UICIBNR":2300017,"name":"o.p. 1636 км (о.п. 1636 км)","abkuerzung":17,"countryCode":"MD"}}}
{"_index":"bahnhoefemd","_type":"bahnhofmd","_id":"AWYZzkwUxpPIvaVA5CMM","_score":1,"_source":{"type":"Feature","geometry":{"type":"Point","coordinates":[27.774907,47.243988]},"properties":{"UICIBNR":2300024,"name":" (Загоранча)","abkuerzung":24,"countryCode":"MD"}}}
{"_index":"bahnhoefemd","_type":"bahnhofmd","_id":"AWYZzkwUxpPIvaVA5CMN","_score":1,"_source":{"type":"Feature","geometry":{"type":"Point","coordinates":[26.783273,48.267881]},"properties":{"UICIBNR":2300035,"name":"Lipkan (Липкань)","abkuerzung":35,"countryCode":"MD"}}}
{"_index":"bahnhoefemd","_type":"bahnhofmd","_id":"AWYZzkwUxpPIvaVA5CMW","_score":1,"_source":{"type":"Feature","geometry":{"type":"Point","coordinates":[27.717846,47.414878]},"properties":{"UICIBNR":2300498,"name":"Stolnicheny (Стольничены)","abkuerzung":498,"countryCode":"MD"}}}
{"_index":"bahnhoefemd","_type":"bahnhofmd","_id":"AWYZzkwUxpPIvaVA5CMX","_score":1,"_source":{"type":"Feature","geometry":{"type":"Point","coordinates":[28.870147,46.12452]},"properties":{"UICIBNR":2300520,"name":"Besh-Gioz (Беш-Гиоз)","abkuerzung":520,"countryCode":"MD"}}}
{"_index":"bahnhoefemd","_type":"bahnhofmd","_id":"AWYZzkwUxpPIvaVA5CMa","_score":1,"_source":{"type":"Feature","geometry":{"type":"Point","coordinates":[27.73607433,48.45069737]},"properties":{"UICIBNR":2300547,"name":"Velchinets (Вэлчинец)","abkuerzung":547,"countryCode":"MD"}}}
{"_index":"bahnhoefemd","_type":"bahnhofmd","_id":"AWYZzkwUxpPIvaVA5CMd","_score":1,"_source":{"type":"Feature","geometry":{"type":"Point","coordinates":[27.6087,48.2358]},"properties":{"UICIBNR":2300554,"name":"Dondushen (Дондушень)","abkuerzung":554,"countryCode":"MD"}}}
{"_index":"bahnhoefemd","_type":"bahnhofmd","_id":"AWYZzkwUxpPIvaVA5CMf","_score":1,"_source":{"type":"Feature","geometry":{"type":"Point","coordinates":[27.8115,48.0309]},"properties":{"UICIBNR":2300557,"name":"Drokiya (Дрокия)","abkuerzung":557,"countryCode":"MD"}}}
{"_index":"bahnhoefemd","_type":"bahnhofmd","_id":"AWYZzkwUxpPIvaVA5CMh","_score":1,"_source":{"type":"Feature","geometry":{"type":"Point","coordinates":[27.910204,47.761044]},"properties":{"UICIBNR":2300574,"name":"Belts-Orash (Бэлць-Ораш)","abkuerzung":574,"countryCode":"MD"}}}
{"_index":"bahnhoefemd","_type":"bahnhofmd","_id":"AWYZzkwUxpPIvaVA5CMl","_score":1,"_source":{"type":"Feature","geometry":{"type":"Point","coordinates":[27.7409935,47.54953652]},"properties":{"UICIBNR":2300578,"name":"Felesht (Фэлешть)","abkuerzung":578,"countryCode":"MD"}}}
{"_index":"bahnhoefemd","_type":"bahnhofmd","_id":"AWYZzkwUxpPIvaVA5CMm","_score":1,"_source":{"type":"Feature","geometry":{"type":"Point","coordinates":[27.755,47.48873462]},"properties":{"UICIBNR":2300579,"name":"Serata Veke (Сэрата Веке)","abkuerzung":579,"countryCode":"MD"}}}
{"_index":"bahnhoefemd","_type":"bahnhofmd","_id":"AWYZzkwUxpPIvaVA5CMn","_score":1,"_source":{"type":"Feature","geometry":{"type":"Point","coordinates":[27.695619,47.347654]},"properties":{"UICIBNR":2300581,"name":"Buchumen (Бучумень)","abkuerzung":581,"countryCode":"MD"}}}
{"_index":"bahnhoefemd","_type":"bahnhofmd","_id":"AWYZzkwUxpPIvaVA5CMx","_score":1,"_source":{"type":"Feature","geometry":{"type":"Point","coordinates":[28.753554,47.072946]},"properties":{"UICIBNR":2300591,"name":"Gidigich (Гидигич)","abkuerzung":591,"countryCode":"MD"}}}
{"_index":"bahnhoefemd","_type":"bahnhofmd","_id":"AWYZzkwUxpPIvaVA5CM0","_score":1,"_source":{"type":"Feature","geometry":{"type":"Point","coordinates":[29.188383,46.90342]},"properties":{"UICIBNR":2300594,"name":"Sokolen (Соколень)","abkuerzung":594,"countryCode":"MD"}}}
{"_index":"bahnhoefemd","_type":"bahnhofmd","_id":"AWYZzkwUxpPIvaVA5CNC","_score":1,"_source":{"type":"Feature","geometry":{"type":"Point","coordinates":[28.951195,46.838771]},"properties":{"UICIBNR":2301532,"name":" (Бэлцаць)","abkuerzung":1532,"countryCode":"MD"}}}
{"_index":"bahnhoefemd","_type":"bahnhofmd","_id":"AWYZzkwUxpPIvaVA5CNH","_score":1,"_source":{"type":"Feature","geometry":{"type":"Point","coordinates":[29.11182761,46.91623395]},"properties":{"UICIBNR":2301540,"name":"Kirka (Кирка)","abkuerzung":1540,"countryCode":"MD"}}}
{"_index":"bahnhoefemd","_type":"bahnhofmd","_id":"AWYZzkwUxpPIvaVA5CNK","_score":1,"_source":{"type":"Feature","geometry":{"type":"Point","coordinates":[27.762065,47.58713]},"properties":{"UICIBNR":2301553,"name":"o.p. 51 km (о.п. 51 км)","abkuerzung":1553,"countryCode":"MD"}}}
{"_index":"bahnhoefemd","_type":"bahnhofmd","_id":"AWYZzkwVxpPIvaVA5CNN","_score":1,"_source":{"type":"Feature","geometry":{"type":"Point","coordinates":[28.92719,46.61423]},"properties":{"UICIBNR":2301557,"name":"Satu-Nou (Сату-Ноу)","abkuerzung":1557,"countryCode":"MD"}}}
{"_index":"bahnhoefemd","_type":"bahnhofmd","_id":"AWYZzkwVxpPIvaVA5CNO","_score":1,"_source":{"type":"Feature","geometry":{"type":"Point","coordinates":[27.701123,47.391949]},"properties":{"UICIBNR":2301558,"name":"Cheropkaniy Noi (Черопканий Ной)","abkuerzung":1558,"countryCode":"MD"}}}
{"_index":"bahnhoefemd","_type":"bahnhofmd","_id":"AWYZzkwVxpPIvaVA5CNP","_score":1,"_source":{"type":"Feature","geometry":{"type":"Point","coordinates":[27.71835,47.309527]},"properties":{"UICIBNR":2301560,"name":"Medelen (Меделень)","abkuerzung":1560,"countryCode":"MD"}}}
{"_index":"bahnhoefemd","_type":"bahnhofmd","_id":"AWYZzkwVxpPIvaVA5CNS","_score":1,"_source":{"type":"Feature","geometry":{"type":"Point","coordinates":[27.83045054,47.25027192]},"properties":{"UICIBNR":2301564,"name":"Untsesht (Унцешть)","abkuerzung":1564,"countryCode":"MD"}}}
{"_index":"bahnhoefemd","_type":"bahnhofmd","_id":"AWYZzkwVxpPIvaVA5CNU","_score":1,"_source":{"type":"Feature","geometry":{"type":"Point","coordinates":[28.814528,46.376777]},"properties":{"UICIBNR":2301566,"name":"Chok-Maidan (Чок-Майдан)","abkuerzung":1566,"countryCode":"MD"}}}
{"_index":"bahnhoefemd","_type":"bahnhofmd","_id":"AWYZzkwVxpPIvaVA5CNZ","_score":1,"_source":{"type":"Feature","geometry":{"type":"Point","coordinates":[29.243078,46.890089]},"properties":{"UICIBNR":2301571,"name":"Aneny (Анены)","abkuerzung":1571,"countryCode":"MD"}}}
{"_index":"bahnhoefemd","_type":"bahnhofmd","_id":"AWYZzkwTxpPIvaVA5CMD","_score":1,"_source":{"type":"Feature","geometry":{"type":"Point","coordinates":[29.474726,46.869984]},"properties":{"UICIBNR":2300014,"name":" (О.п. 1497 км)","abkuerzung":14,"countryCode":"MD"}}}
{"_index":"bahnhoefemd","_type":"bahnhofmd","_id":"AWYZzkwUxpPIvaVA5CMP","_score":1,"_source":{"type":"Feature","geometry":{"type":"Point","coordinates":[27.838915,47.998504]},"properties":{"UICIBNR":2300101,"name":"o.p. 113 km (О.п. 113 км)","abkuerzung":101,"countryCode":"MD"}}}
{"_index":"bahnhoefemd","_type":"bahnhofmd","_id":"AWYZzkwUxpPIvaVA5CMQ","_score":1,"_source":{"type":"Feature","geometry":{"type":"Point","coordinates":[27.850741,47.903916]},"properties":{"UICIBNR":2300102,"name":"o.p. 101 км (о.п. 101 км)","abkuerzung":102,"countryCode":"MD"}}}
{"_index":"bahnhoefemd","_type":"bahnhofmd","_id":"AWYZzkwUxpPIvaVA5CMg","_score":1,"_source":{"type":"Feature","geometry":{"type":"Point","coordinates":[27.836888,47.95450814]},"properties":{"UICIBNR":2300558,"name":"Sofiya (София)","abkuerzung":558,"countryCode":"MD"}}}
{"_index":"bahnhoefemd","_type":"bahnhofmd","_id":"AWYZzkwUxpPIvaVA5CMp","_score":1,"_source":{"type":"Feature","geometry":{"type":"Point","coordinates":[27.8922379,47.32280331]},"properties":{"UICIBNR":2300583,"name":"Pyrlitsa (Пырлица)","abkuerzung":583,"countryCode":"MD"}}}
{"_index":"bahnhoefemd","_type":"bahnhofmd","_id":"AWYZzkwUxpPIvaVA5CMu","_score":1,"_source":{"type":"Feature","geometry":{"type":"Point","coordinates":[28.45591,47.188236]},"properties":{"UICIBNR":2300588,"name":"Bukovets (Буковец)","abkuerzung":588,"countryCode":"MD"}}}
{"_index":"bahnhoefemd","_type":"bahnhofmd","_id":"AWYZzkwUxpPIvaVA5CMw","_score":1,"_source":{"type":"Feature","geometry":{"type":"Point","coordinates":[29.472083,46.827006]},"properties":{"UICIBNR":2300590,"name":"Bender-1 (Бендер-1)","abkuerzung":590,"countryCode":"MD"}}}
{"_index":"bahnhoefemd","_type":"bahnhofmd","_id":"AWYZzkwUxpPIvaVA5CM6","_score":1,"_source":{"type":"Feature","geometry":{"type":"Point","coordinates":[29.6318,46.8473]},"properties":{"UICIBNR":2300610,"name":"Tiraspol (Тирасполь)","abkuerzung":610,"countryCode":"MD"}}}
{"_index":"bahnhoefemd","_type":"bahnhofmd","_id":"AWYZzkwUxpPIvaVA5CM9","_score":1,"_source":{"type":"Feature","geometry":{"type":"Point","coordinates":[28.64836,45.9283338]},"properties":{"UICIBNR":2300616,"name":"Tarakliya (Тараклия)","abkuerzung":616,"countryCode":"MD"}}}
{"_index":"bahnhoefemd","_type":"bahnhofmd","_id":"AWYZzkwUxpPIvaVA5CNB","_score":1,"_source":{"type":"Feature","geometry":{"type":"Point","coordinates":[29.0292424,46.73430543]},"properties":{"UICIBNR":2301531,"name":" (Гангура)","abkuerzung":1531,"countryCode":"MD"}}}
{"_index":"bahnhoefemd","_type":"bahnhofmd","_id":"AWYZzkwUxpPIvaVA5CNE","_score":1,"_source":{"type":"Feature","geometry":{"type":"Point","coordinates":[29.015913,46.901175]},"properties":{"UICIBNR":2301535,"name":"Dachi (Дачи)","abkuerzung":1535,"countryCode":"MD"}}}
{"_index":"bahnhoefemd","_type":"bahnhofmd","_id":"AWYZzkwVxpPIvaVA5CNL","_score":1,"_source":{"type":"Feature","geometry":{"type":"Point","coordinates":[27.804621,47.231436]},"properties":{"UICIBNR":2301554,"name":"Bereshty (Берешты)","abkuerzung":1554,"countryCode":"MD"}}}
{"_index":"bahnhoefemd","_type":"bahnhofmd","_id":"AWYZzkwVxpPIvaVA5CNT","_score":1,"_source":{"type":"Feature","geometry":{"type":"Point","coordinates":[28.924634,46.637085]},"properties":{"UICIBNR":2301565,"name":"Chuflesht (Чуфлешть)","abkuerzung":1565,"countryCode":"MD"}}}
{"_index":"bahnhoefemd","_type":"bahnhofmd","_id":"AWYZzkwVxpPIvaVA5CNW","_score":1,"_source":{"type":"Feature","geometry":{"type":"Point","coordinates":[27.5421,48.2571]},"properties":{"UICIBNR":2301568,"name":"o.p. 154 km (о.п. 154 км)","abkuerzung":1568,"countryCode":"MD"}}}
{"_index":"bahnhoefemd","_type":"bahnhofmd","_id":"AWYZzkwVxpPIvaVA5CNc","_score":1,"_source":{"type":"Feature","geometry":{"type":"Point","coordinates":[28.776144,47.064363]},"properties":{"UICIBNR":2301574,"name":"Prunkul (Прункул)","abkuerzung":1574,"countryCode":"MD"}}}
{"_index":"bahnhoefemd","_type":"bahnhofmd","_id":"AWYZzkwVxpPIvaVA5CNe","_score":1,"_source":{"type":"Feature","geometry":{"type":"Point","coordinates":[27.73227936,48.10447014]},"properties":{"UICIBNR":2301576,"name":"Gizdita (Гиздита)","abkuerzung":1576,"countryCode":"MD"}}}
{"_index":"bahnhoefemd","_type":"bahnhofmd","_id":"AWYZzkwVxpPIvaVA5CNi","_score":1,"_source":{"type":"Feature","geometry":{"type":"Point","coordinates":[28.93263996,46.94940534]},"properties":{"UICIBNR":2301582,"name":"Revaka (Ревака)","abkuerzung":1582,"countryCode":"MD"}}}
{"_index":"bahnhoefemd","_type":"bahnhofmd","_id":"AWYZzkwVxpPIvaVA5CNk","_score":1,"_source":{"type":"Feature","geometry":{"type":"Point","coordinates":[29.38597,46.905578]},"properties":{"UICIBNR":2301590,"name":"Selo-Kalfa (Село-Калфа)","abkuerzung":1590,"countryCode":"MD"}}}
{"_index":"bahnhoefemd","_type":"bahnhofmd","_id":"AWYZzkwTxpPIvaVA5CMJ","_score":1,"_source":{"type":"Feature","geometry":{"type":"Point","coordinates":[26.673366,48.26953]},"properties":{"UICIBNR":2300021,"name":"Kriva (Крива)","abkuerzung":21,"countryCode":"MD"}}}
{"_index":"bahnhoefemd","_type":"bahnhofmd","_id":"AWYZzkwUxpPIvaVA5CMK","_score":1,"_source":{"type":"Feature","geometry":{"type":"Point","coordinates":[27.698883,47.368346]},"properties":{"UICIBNR":2300022,"name":" (О.п. 23 км)","abkuerzung":22,"countryCode":"MD"}}}
{"_index":"bahnhoefemd","_type":"bahnhofmd","_id":"AWYZzkwUxpPIvaVA5CMU","_score":1,"_source":{"type":"Feature","geometry":{"type":"Point","coordinates":[26.792478,48.358187]},"properties":{"UICIBNR":2300236,"name":"Medvezha (Медвежа)","abkuerzung":236,"countryCode":"MD"}}}
{"_index":"bahnhoefemd","_type":"bahnhofmd","_id":"AWYZzkwUxpPIvaVA5CMY","_score":1,"_source":{"type":"Feature","geometry":{"type":"Point","coordinates":[27.501957,48.319771]},"properties":{"UICIBNR":2300535,"name":"Grinautsy (Гринауцы)","abkuerzung":535,"countryCode":"MD"}}}
{"_index":"bahnhoefemd","_type":"bahnhofmd","_id":"AWYZzkwUxpPIvaVA5CMj","_score":1,"_source":{"type":"Feature","geometry":{"type":"Point","coordinates":[27.74979115,47.67858655]},"properties":{"UICIBNR":2300576,"name":"Khiliuts (Хилиуць)","abkuerzung":576,"countryCode":"MD"}}}
{"_index":"bahnhoefemd","_type":"bahnhofmd","_id":"AWYZzkwUxpPIvaVA5CMk","_score":1,"_source":{"type":"Feature","geometry":{"type":"Point","coordinates":[27.77264357,47.61881313]},"properties":{"UICIBNR":2300577,"name":"Katranik (Катраник)","abkuerzung":577,"countryCode":"MD"}}}
{"_index":"bahnhoefemd","_type":"bahnhofmd","_id":"AWYZzkwUxpPIvaVA5CMq","_score":1,"_source":{"type":"Feature","geometry":{"type":"Point","coordinates":[28.002678,47.363041]},"properties":{"UICIBNR":2300584,"name":"Korneshty (Корнешты)","abkuerzung":584,"countryCode":"MD"}}}
{"_index":"bahnhoefemd","_type":"bahnhofmd","_id":"AWYZzkwUxpPIvaVA5CMs","_score":1,"_source":{"type":"Feature","geometry":{"type":"Point","coordinates":[28.2071,47.2786]},"properties":{"UICIBNR":2300586,"name":"Sipoteny (Сипотены)","abkuerzung":586,"countryCode":"MD"}}}
{"_index":"bahnhoefemd","_type":"bahnhofmd","_id":"AWYZzkwUxpPIvaVA5CMy","_score":1,"_source":{"type":"Feature","geometry":{"type":"Point","coordinates":[28.660996,46.36299]},"properties":{"UICIBNR":2300592,"name":"Komrat (Комрат)","abkuerzung":592,"countryCode":"MD"}}}
{"_index":"bahnhoefemd","_type":"bahnhofmd","_id":"AWYZzkwUxpPIvaVA5CM1","_score":1,"_source":{"type":"Feature","geometry":{"type":"Point","coordinates":[29.290404,46.889328]},"properties":{"UICIBNR":2300595,"name":"Bulboaka (Булбоака)","abkuerzung":595,"countryCode":"MD"}}}
{"_index":"bahnhoefemd","_type":"bahnhofmd","_id":"AWYZzkwUxpPIvaVA5CM2","_score":1,"_source":{"type":"Feature","geometry":{"type":"Point","coordinates":[29.47555,46.842849]},"properties":{"UICIBNR":2300597,"name":"Bender-2 (Бендер-2)","abkuerzung":597,"countryCode":"MD"}}}
{"_index":"bahnhoefemd","_type":"bahnhofmd","_id":"AWYZzkwUxpPIvaVA5CM3","_score":1,"_source":{"type":"Feature","geometry":{"type":"Point","coordinates":[29.09562171,46.675844]},"properties":{"UICIBNR":2300605,"name":"Keinar (Кэинарь)","abkuerzung":605,"countryCode":"MD"}}}
{"_index":"bahnhoefemd","_type":"bahnhofmd","_id":"AWYZzkwUxpPIvaVA5CM7","_score":1,"_source":{"type":"Feature","geometry":{"type":"Point","coordinates":[28.983788,46.325114]},"properties":{"UICIBNR":2300611,"name":"Basarabyaska (Басарабяска)","abkuerzung":611,"countryCode":"MD"}}}
{"_index":"bahnhoefemd","_type":"bahnhofmd","_id":"AWYZzkwUxpPIvaVA5CM_","_score":1,"_source":{"type":"Feature","geometry":{"type":"Point","coordinates":[28.9483577,46.47827423]},"properties":{"UICIBNR":2301507,"name":"Isserliya (Иссерлия)","abkuerzung":1507,"countryCode":"MD"}}}
{"_index":"bahnhoefemd","_type":"bahnhofmd","_id":"AWYZzkwUxpPIvaVA5CNF","_score":1,"_source":{"type":"Feature","geometry":{"type":"Point","coordinates":[28.974007,46.919053]},"properties":{"UICIBNR":2301536,"name":"Revaka Park (Парк Ревака)","abkuerzung":1536,"countryCode":"MD"}}}
{"_index":"bahnhoefemd","_type":"bahnhofmd","_id":"AWYZzkwUxpPIvaVA5CNG","_score":1,"_source":{"type":"Feature","geometry":{"type":"Point","coordinates":[28.905662,46.980438]},"properties":{"UICIBNR":2301537,"name":"Chisinau (Кишинэу-3)","abkuerzung":1537,"countryCode":"MD"}}}
{"_index":"bahnhoefemd","_type":"bahnhofmd","_id":"AWYZzkwVxpPIvaVA5CNY","_score":1,"_source":{"type":"Feature","geometry":{"type":"Point","coordinates":[28.52737695,47.16920431]},"properties":{"UICIBNR":2301570,"name":"Peneshesht (Пэнэшешть)","abkuerzung":1570,"countryCode":"MD"}}}
{"_index":"bahnhoefemd","_type":"bahnhofmd","_id":"AWYZzkwVxpPIvaVA5CNd","_score":1,"_source":{"type":"Feature","geometry":{"type":"Point","coordinates":[27.57598937,48.43961577]},"properties":{"UICIBNR":2301575,"name":"Naslavcha (Наславча)","abkuerzung":1575,"countryCode":"MD"}}}
{"_index":"bahnhoefemd","_type":"bahnhofmd","_id":"AWYZzkwVxpPIvaVA5CNj","_score":1,"_source":{"type":"Feature","geometry":{"type":"Point","coordinates":[27.747522,47.46229864]},"properties":{"UICIBNR":2301587,"name":"Skumpiya (Скумпия)","abkuerzung":1587,"countryCode":"MD"}}}
